"timeStamp","surroundings_IR_Left","surroundings_IR_Right","surroundings_UltraSonic","pose2D_x","pose2D_y","pose2D_theta","pose2D_linearVelocity","pose2D_angularVelocity","baseTick_left","baseTick_right","wheelSpeed_SpeedLeft","wheelSpeed_SpeedRight","headPoseWorld_roll","headPoseWorld_pitch","headPoseWorld_yaw","headPoseJoint_roll","headPoseJoint_pitch","headPoseJoint_yaw","baseImu_roll","baseImu_pitch","baseImu_yaw","fishEyeTf_tx","fishEyeTf_ty","fishEyeTf_tz","fishEyeTf_roll","fishEyeTf_pitch","fishEyeTf_yaw","colorTf_tx","colorTf_ty","colorTf_tz","colorTf_roll","colorTf_pitch","colorTf_yaw","depthTf_tx","depthTf_ty","depthTf_tz","depthTf_roll","depthTf_pitch","depthTf_yaw","fishEyeIndex","colorIndex","depthIndex"
"1589397045636","1924","1472","1500","-46.363182","13.677263","3.0885246","-0.009516629","0.028475538","46139","46301","-197.0","-135.0","-0.56166995","1.3534932","0.0","0.0","1.3505204","0.083142884","0.03652903","0.0011505208","0.10603966","-0.056293435","-0.044981398","-0.52911","-0.083342806","0.06593756","-0.0061944136","-0.056293435","0.043068603","-0.52911","-0.083342806","0.06593756","-0.0061944136","-0.056293435","-0.015371394","-0.52911","-0.083342806","0.06593756","-0.0061944136","0","6571036981652","0"
"1589397045644","1924","1472","1500","-46.363182","13.677263","3.0885246","-0.008564967","0.025627984","46139","46301","-197.0","-135.0","-0.56166995","1.3534932","0.0","0.0","1.3505204","0.083142884","0.03652903","0.0026845483","0.10460151","-0.056293435","-0.044981398","-0.52911","-0.08326462","0.06643042","-0.0050262935","-0.056293435","0.043068603","-0.52911","-0.08326462","0.06643042","-0.0050262935","-0.056293435","-0.015371394","-0.52911","-0.08326462","0.06643042","-0.0050262935","0","6571036981652","0"
"1589397045656","1924","1472","1500","-46.363182","13.677263","3.0885246","-0.008564967","0.025627984","46139","46301","-197.0","-135.0","-0.56061506","1.3532056","0.0","0.0","1.3505204","0.083142884","0.03652903","0.0026845483","0.10460151","-0.056294248","-0.044991173","-0.52911","-0.08253356","0.06643406","-0.004977816","-0.056294248","0.043058828","-0.52911","-0.08253356","0.06643406","-0.004977816","-0.056294248","-0.015381169","-0.52911","-0.08253356","0.06643406","-0.004977816","0","6571036981652","0"
"1589397045672","1899","1445","1500","-46.363182","13.677263","3.0885246","-0.008564967","0.025627984","46139","46301","-197.0","-135.0","-0.56061506","1.3532056","0.0","0.0","1.3505204","0.08151263","0.03652903","0.0026845483","0.10460151","-0.056294248","-0.044991173","-0.52911","-0.08253356","0.06643406","-0.004977816","-0.056294248","0.043058828","-0.52911","-0.08253356","0.06643406","-0.004977816","-0.056294248","-0.015381169","-0.52911","-0.08253356","0.06643406","-0.004977816","0","6571036981652","6579889775125"
"1589397045677","1899","1445","1500","-46.363182","13.677263","3.0885246","-0.008564967","0.025627984","46139","46301","-197.0","-135.0","-0.56061506","1.3532056","0.0","0.0","1.3505204","0.08151263","0.03652903","0.0026845483","0.10460151","-0.056294248","-0.044991173","-0.52911","-0.08253356","0.06643406","-0.004977816","-0.056294248","0.043058828","-0.52911","-0.08253356","0.06643406","-0.004977816","-0.056294248","-0.015381169","-0.52911","-0.08253356","0.06643406","-0.004977816","0","6571036981652","6579889775125"
"1589397045691","1899","1445","1500","-46.363182","13.677263","3.0885246","-0.008564967","0.025627984","46139","46301","-197.0","-135.0","-0.56061506","1.3532056","0.0","0.0","1.3539727","0.08151263","0.03652903","0.0026845483","0.10460151","-0.05629604","-0.045013037","-0.52911","-0.08071349","0.06681474","-0.0020956593","-0.05629604","0.043036964","-0.52911","-0.080818765","0.06660286","-0.0036732226","-0.05629604","-0.015403034","-0.52911","-0.080818765","0.06660286","-0.0036732226","6579923817651","6571036981652","6579889775125"
"1589397045695","1899","1445","1500","-46.363182","13.677263","3.0885246","-0.00770847","0.023065185","46139","46301","-197.0","-135.0","-0.56061506","1.3532056","0.0","0.0","1.3539727","0.08151263","0.03652903","0.0029721784","0.10335511","-0.05629604","-0.045013037","-0.52911","-0.080818765","0.06660286","-0.0036732226","-0.05629604","0.043036964","-0.52911","-0.080818765","0.06660286","-0.0036732226","-0.05629604","-0.015403034","-0.52911","-0.080818765","0.06660286","-0.0036732226","6579923817651","6571036981652","6579889775125"
"1589397045704","1899","1445","1500","-46.363182","13.677263","3.0885246","-0.00770847","0.023065185","46139","46301","-197.0","-135.0","-0.56061506","1.3532056","0.0","0.0","1.3539727","0.08151263","0.03652903","0.0029721784","0.10335511","-0.05629604","-0.045013037","-0.52911","-0.080818765","0.06660286","-0.0036732226","-0.05629604","0.043036964","-0.52911","-0.080818765","0.06660286","-0.0036732226","-0.05629478","-0.015387599","-0.52911","-0.08197303","0.06659859","-0.0037499615","6579923817651","6571036981652","6579922668388"
"1589397045709","1899","1445","1500","-46.363182","13.677263","3.0885246","-0.00770847","0.023065185","46139","46301","-197.0","-135.0","-0.5600397","1.3533014","0.0","0.0","1.3539727","0.08275929","0.03652903","0.0029721784","0.10335511","-0.05629478","-0.044997603","-0.52911","-0.08197303","0.06659859","-0.0037499615","-0.05629478","0.043052398","-0.52911","-0.08197303","0.06659859","-0.0037499615","-0.05629478","-0.015387599","-0.52911","-0.08197303","0.06659859","-0.0037499615","6579923817651","6571036981652","6579922668388"
"1589397045717","1899","1445","1500","-46.363182","13.677263","3.0885246","-0.00770847","0.023065185","46139","46301","-197.0","-135.0","-0.5600397","1.3533014","0.0","0.0","1.3539727","0.08275929","0.03652903","0.0029721784","0.10335511","-0.05629478","-0.044997603","-0.52911","-0.08197303","0.06659859","-0.0037499615","-0.05629478","0.043052398","-0.52911","-0.08197303","0.06659859","-0.0037499615","-0.05629478","-0.015387599","-0.52911","-0.08197303","0.06659859","-0.0037499615","6579923817651","6571036981652","6579922668388"
"1589397045725","1899","1445","1500","-46.363182","13.677263","3.0885246","-0.00770847","0.023065185","46139","46301","-197.0","-135.0","-0.5600397","1.3533014","0.0","0.0","1.3539727","0.08275929","0.03652903","0.0029721784","0.10335511","-0.05629478","-0.044997603","-0.52911","-0.08197303","0.06659859","-0.0037499615","-0.05629478","0.043052398","-0.52911","-0.08197303","0.06659859","-0.0037499615","-0.05629478","-0.015387599","-0.52911","-0.08197303","0.06659859","-0.0037499615","6579923817651","6571036981652","6579922668388"
"1589397045728","1899","1445","1500","-46.363182","13.677263","3.0885246","-0.00770847","0.023065185","46139","46302","-197.0","-135.0","-0.5600397","1.3533014","0.0","0.0","1.3539727","0.08275929","0.03652903","0.0029721784","0.10335511","-0.05629478","-0.044997603","-0.52911","-0.08197303","0.06659859","-0.0037499615","-0.05629478","0.043052398","-0.52911","-0.08197303","0.06659859","-0.0037499615","-0.05629478","-0.015387599","-0.52911","-0.08197303","0.06659859","-0.0037499615","6579923817651","6571036981652","6579922668388"
"1589397045739","1899","1445","1500","-46.363182","13.677263","3.0885246","-0.00770847","0.023065185","46139","46302","-197.0","119.0","-0.5600397","1.3533014","0.0","0.0","1.3560824","0.08275929","0.03652903","0.0029721784","0.10191696","-0.056293394","-0.044980884","-0.52911","-0.08317024","0.06667375","-0.0023887157","-0.056293394","0.043069117","-0.52911","-0.08317024","0.06667375","-0.0023887157","-0.056293394","-0.01537088","-0.52911","-0.08317024","0.06667375","-0.0023887157","6579923817651","6571036981652","6579955572749"
"1589397045746","1899","1445","1500","-46.36763","13.677457","3.107828","0.001963556","0.059365224","46139","46302","-197.0","119.0","-0.5600397","1.3533014","0.0","0.0","1.3560824","0.08275929","0.03652903","0.0029721784","0.10191696","-0.056293394","-0.044980884","-0.52911","-0.08317024","0.06667375","-0.0023887157","-0.056293394","0.043069117","-0.52911","-0.08317024","0.06667375","-0.0023887157","-0.056293394","-0.01537088","-0.52911","-0.08317024","0.06667375","-0.0023887157","6579923817651","6571036981652","6579955572749"
"1589397045765","1899","1445","1500","-46.36763","13.677457","3.107828","0.001963556","0.059365224","46139","46302","-197.0","119.0","-0.5609987","1.3538768","0.0","0.0","1.3560824","0.078635715","0.03652903","0.0029721784","0.10191696","-0.056295767","-0.04500969","-0.52911","-0.08101555","0.066678725","-0.002245307","-0.056295767","0.04304031","-0.52911","-0.08101555","0.066678725","-0.002245307","-0.056295767","-0.01539969","-0.52911","-0.08101555","0.066678725","-0.002245307","6579989635890","6571036981652","6579955572749"
"1589397045773","1883","1419","1500","-46.36763","13.677457","3.107828","0.001963556","0.059365224","46139","46302","-197.0","119.0","-0.5609987","1.3538768","0.0","0.0","1.3560824","0.078635715","0.03652903","0.0029721784","0.10191696","-0.056295767","-0.04500969","-0.52911","-0.08101555","0.066678725","-0.002245307","-0.056295767","0.04304031","-0.52911","-0.08101555","0.066678725","-0.002245307","-0.056295767","-0.01539969","-0.52911","-0.08101555","0.066678725","-0.002245307","6579989635890","6571036981652","6579988486038"
"1589397045777","1883","1419","1500","-46.36763","13.677457","3.107828","0.001963556","0.059365224","46139","46302","-197.0","119.0","-0.5609987","1.3538768","0.0","0.0","1.3560824","0.078635715","0.03652903","0.0029721784","0.10191696","-0.056295767","-0.04500969","-0.52911","-0.08101555","0.066678725","-0.002245307","-0.056295767","0.04304031","-0.52911","-0.08101555","0.066678725","-0.002245307","-0.056295767","-0.01539969","-0.52911","-0.08101555","0.066678725","-0.002245307","6579989635890","6571036981652","6579988486038"
"1589397045786","1883","1419","1500","-46.36763","13.677457","3.107828","0.001963556","0.059365224","46139","46302","-197.0","119.0","-0.5609987","1.3538768","0.0","0.0","1.3560824","0.078635715","0.03652903","0.0029721784","0.10191696","-0.056295767","-0.04500969","-0.52911","-0.08101555","0.066678725","-0.002245307","-0.056295767","0.04304031","-0.52911","-0.08101555","0.066678725","-0.002245307","-0.056295767","-0.01539969","-0.52911","-0.08101555","0.066678725","-0.002245307","6579989635890","6571036981652","6579988486038"
"1589397045802","1883","1419","1500","-46.36763","13.677457","3.107828","0.0017672004","0.053428702","46139","46302","-197.0","119.0","-0.5609987","1.3538768","0.0","0.0","1.3593429","0.078635715","0.03652903","0.0032598088","0.099903546","-0.05630015","-0.04506501","-0.52911","-0.07685525","0.06672788","-0.0016048929","-0.05630015","0.04298499","-0.52911","-0.07685525","0.06672788","-0.0016048929","-0.05630015","-0.0154550085","-0.52911","-0.07685525","0.06672788","-0.0016048929","6579989635890","6579889775125","6579988486038"
"1589397045807","1883","1419","1500","-46.36763","13.677457","3.107828","0.0017672004","0.053428702","46139","46302","-197.0","119.0","-0.5611905","1.3542604","0.0","0.0","1.3593429","0.068950094","0.036433157","0.0032598088","0.099903546","-0.056302417","-0.045094863","-0.52911","-0.07462393","0.06673128","-0.0014562431","-0.056302417","0.042955138","-0.52911","-0.07462393","0.06673128","-0.0014562431","-0.056302417","-0.015484862","-0.52911","-0.07462393","0.06673128","-0.0014562431","6579989635890","6579889775125","6580021401745"
"1589397045812","1883","1419","1500","-46.36763","13.677457","3.107828","0.0017672004","0.053428702","46139","46302","-197.0","119.0","-0.5611905","1.3542604","0.0","0.0","1.3593429","0.068950094","0.036433157","0.0032598088","0.099903546","-0.056302417","-0.045094863","-0.52911","-0.07462393","0.06673128","-0.0014562431","-0.056302417","0.042955138","-0.52911","-0.07462393","0.06673128","-0.0014562431","-0.056302417","-0.015484862","-0.52911","-0.07462393","0.06673128","-0.0014562431","6579989635890","6579889775125","6580021401745"
"1589397045825","1883","1419","1500","-46.36763","13.677457","3.107828","0.0017672004","0.053428702","46139","46302","-197.0","119.0","-0.5611905","1.3542604","0.0","0.0","1.3593429","0.068950094","0.036433157","0.0032598088","0.099903546","-0.056302417","-0.045094863","-0.52911","-0.07462393","0.06673128","-0.0014562431","-0.056302417","0.042955138","-0.52911","-0.07462393","0.06673128","-0.0014562431","-0.056302417","-0.015484862","-0.52911","-0.07462393","0.06673128","-0.0014562431","6580055465754","6579889775125","6580021401745"
"1589397045833","1883","1419","1500","-46.36763","13.677457","3.107828","0.0017672004","0.053428702","46139","46302","-197.0","119.0","-0.5611905","1.3542604","0.0","0.0","1.3626034","0.068950094","0.036433157","0.0032598088","0.099903546","-0.056302417","-0.045094863","-0.52911","-0.07462393","0.06673128","-0.0014562431","-0.056302417","0.042955138","-0.52911","-0.07462393","0.06673128","-0.0014562431","-0.056302417","-0.015484862","-0.52911","-0.07462393","0.06673128","-0.0014562431","6580055465754","6579889775125","6580021401745"
"1589397045839","1883","1419","1500","-46.36763","13.677457","3.107828","0.0017672004","0.053428702","46139","46302","-197.0","119.0","-0.5611905","1.3542604","0.0","0.0","1.3626034","0.068950094","0.036433157","0.003930946","0.09741075","-0.056302417","-0.045094863","-0.52911","-0.07462393","0.06673128","-0.0014562431","-0.056302417","0.042955138","-0.52911","-0.07462393","0.06673128","-0.0014562431","-0.056302417","-0.015484862","-0.52911","-0.07462393","0.06673128","-0.0014562431","6580055465754","6579889775125","6580021401745"
"1589397045845","1883","1419","1500","-46.36763","13.677457","3.107828","0.0015904803","0.04808583","46139","46302","-197.0","119.0","-0.5611905","1.3542604","0.0","0.0","1.3626034","0.068950094","0.036433157","0.003930946","0.09741075","-0.05631152","-0.045224886","-0.52911","-0.06484379","0.0670486","1.801043E-4","-0.05631152","0.042825114","-0.52911","-0.06484379","0.0670486","1.801043E-4","-0.05631152","-0.015614883","-0.52911","-0.06484379","0.0670486","1.801043E-4","6580055465754","6579889775125","6580054316150"
"1589397045862","1883","1419","1500","-46.36763","13.677457","3.107828","0.0015904803","0.04808583","46139","46302","-197.0","119.0","-0.56166995","1.3548357","0.0","0.0","1.3626034","0.058880888","0.036433157","0.003930946","0.09741075","-0.056311656","-0.045226946","-0.52911","-0.06468994","0.06704857","1.9040506E-4","-0.056311656","0.042823054","-0.52911","-0.06468994","0.06704857","1.9040506E-4","-0.056311656","-0.015616944","-0.52911","-0.06468994","0.06704857","1.9040506E-4","6580055465754","6579889775125","6580054316150"
"1589397045867","1869","1391","1500","-46.36763","13.677457","3.107828","0.0015904803","0.04808583","46139","46302","-197.0","119.0","-0.56166995","1.3548357","0.0","0.0","1.3626034","0.058880888","0.036433157","0.003930946","0.09741075","-0.056311656","-0.045226946","-0.52911","-0.06468994","0.06704857","1.9040506E-4","-0.056311656","0.042823054","-0.52911","-0.06468994","0.06704857","1.9040506E-4","-0.056311656","-0.015616944","-0.52911","-0.06468994","0.06704857","1.9040506E-4","6580055465754","6579889775125","6580054316150"
"1589397045876","1869","1391","1500","-46.36763","13.677457","3.107828","0.0015904803","0.04808583","46139","46302","-197.0","119.0","-0.56166995","1.3548357","0.0","0.0","1.3626034","0.058880888","0.036433157","0.003930946","0.09741075","-0.056311656","-0.045226946","-0.52911","-0.06468994","0.06704857","1.9040506E-4","-0.056311656","0.042823054","-0.52911","-0.06468994","0.06704857","1.9040506E-4","-0.056311656","-0.015616944","-0.52911","-0.06468994","0.06704857","1.9040506E-4","6580055465754","6579889775125","6580087224665"
"1589397045892","1869","1391","1500","-46.36763","13.677457","3.107828","0.0015904803","0.04808583","46139","46303","-197.0","119.0","-0.56166995","1.3548357","0.0","0.0","1.3662475","0.058880888","0.036433157","0.003930946","0.09741075","-0.056311656","-0.045226946","-0.52911","-0.06468994","0.06704857","1.9040506E-4","-0.056311656","0.042823054","-0.52911","-0.06468994","0.06704857","1.9040506E-4","-0.056311656","-0.015616944","-0.52911","-0.06468994","0.06704857","1.9040506E-4","6580055465754","6579889775125","6580087224665"
"1589397045899","1869","1391","1500","-46.372078","13.677564","3.1271312","0.010332611","0.0818838","46139","46303","-197.0","137.0","-0.56166995","1.3548357","0.0","0.0","1.3662475","0.058880888","0.036433157","0.0047938363","0.094726205","-0.056319762","-0.045362204","-0.52911","-0.05445377","0.066874765","0.0036447446","-0.056319762","0.042687796","-0.52911","-0.05445377","0.066874765","0.0036447446","-0.056319762","-0.015752204","-0.52911","-0.05445377","0.066874765","0.0036447446","6580121277793","6579889775125","6580087224665"
"1589397045906","1869","1391","1500","-46.372078","13.677564","3.1271312","0.010332611","0.0818838","46139","46303","-197.0","137.0","-0.5638756","1.355507","0.0","0.0","1.3662475","0.049578857","0.0362414","0.0047938363","0.094726205","-0.056319535","-0.04535808","-0.52911","-0.054761406","0.066875875","0.003624196","-0.056319535","0.04269192","-0.52911","-0.054761406","0.066875875","0.003624196","-0.056319535","-0.01574808","-0.52911","-0.054761406","0.066875875","0.003624196","6580121277793","6579889775125","6580120128437"
"1589397045920","1869","1391","1500","-46.372078","13.677564","3.1271312","0.010332611","0.0818838","46139","46303","-197.0","137.0","-0.5638756","1.355507","0.0","0.0","1.3662475","0.049578857","0.0362414","0.0047938363","0.094726205","-0.056319535","-0.04535808","-0.52911","-0.054761406","0.066875875","0.003624196","-0.056319535","0.04269192","-0.52911","-0.054761406","0.066875875","0.003624196","-0.056319535","-0.01574808","-0.52911","-0.054761406","0.066875875","0.003624196","6580121277793","6579889775125","6580120128437"
"1589397045930","1869","1391","1500","-46.372078","13.677564","3.1271312","0.010332611","0.0818838","46139","46303","-197.0","137.0","-0.5638756","1.355507","0.0","0.0","1.3662475","0.049578857","0.0362414","0.0047938363","0.094726205","-0.056319535","-0.04535808","-0.52911","-0.054761406","0.066875875","0.003624196","-0.056319535","0.04269192","-0.52911","-0.054761406","0.066875875","0.003624196","-0.056319535","-0.01574808","-0.52911","-0.054761406","0.066875875","0.003624196","6580121277793","6579889775125","6580120128437"
"1589397045938","1869","1391","1500","-46.372078","13.677564","3.1271312","0.010332611","0.0818838","46139","46303","0.0","137.0","-0.5638756","1.355507","0.0","0.0","1.3684531","0.049578857","0.0362414","0.0047938363","0.094726205","-0.056319535","-0.04535808","-0.52911","-0.054761406","0.066875875","0.003624196","-0.056319535","0.04269192","-0.52911","-0.054761406","0.066875875","0.003624196","-0.056319535","-0.01574808","-0.52911","-0.054761406","0.066875875","0.003624196","6580121277793","6580054316150","6580153031806"
"1589397045942","1869","1391","1500","-46.372078","13.677564","3.1271312","0.010332611","0.0818838","46139","46303","0.0","137.0","-0.5638756","1.355507","0.0","0.0","1.3684531","0.049578857","0.0362414","0.0049855895","0.091370516","-0.056319535","-0.04535808","-0.52911","-0.054761406","0.066875875","0.003624196","-0.056319535","0.04269192","-0.52911","-0.054761406","0.066875875","0.003624196","-0.056319535","-0.01574808","-0.52911","-0.054761406","0.066875875","0.003624196","6580121277793","6580054316150","6580153031806"
"1589397045946","1869","1391","1500","-46.372078","13.677564","3.1271312","0.010332611","0.0818838","46139","46303","0.0","137.0","-0.5638756","1.355507","0.0","0.0","1.3684531","0.049578857","0.0362414","0.0049855895","0.091370516","-0.056319535","-0.04535808","-0.52911","-0.054761406","0.066875875","0.003624196","-0.056325853","0.0425669","-0.52911","-0.045387577","0.06715561","0.0049463836","-0.056325853","-0.015873099","-0.52911","-0.045387577","0.06715561","0.0049463836","6580121277793","6580054316150","6580153031806"
"1589397045958","1869","1391","1500","-46.372078","13.677564","3.1271312","0.00929935","0.07369542","46139","46303","0.0","137.0","-0.568191","1.3570415","0.0","0.0","1.3684531","0.041139904","0.03604965","0.0049855895","0.091370516","-0.05632564","-0.04547846","-0.52911","-0.045733623","0.06715731","0.004923169","-0.05632564","0.04257154","-0.52911","-0.045733623","0.06715731","0.004923169","-0.05632564","-0.015868457","-0.52911","-0.045733623","0.06715731","0.004923169","6580121277793","6580054316150","6580153031806"
"1589397045961","1847","1362","1500","-46.372078","13.677564","3.1271312","0.00929935","0.07369542","46139","46303","0.0","137.0","-0.568191","1.3570415","0.0","0.0","1.3684531","0.041139904","0.03604965","0.0049855895","0.091370516","-0.05632564","-0.04547846","-0.52911","-0.045733623","0.06715731","0.004923169","-0.05632564","0.04257154","-0.52911","-0.045733623","0.06715731","0.004923169","-0.05632564","-0.015868457","-0.52911","-0.045733623","0.06715731","0.004923169","6580121277793","6580054316150","6580153031806"
"1589397045964","1847","1362","1500","-46.372078","13.677564","3.1271312","0.00929935","0.07369542","46139","46303","0.0","137.0","-0.568191","1.3570415","0.0","0.0","1.3684531","0.041139904","0.03604965","0.0049855895","0.091370516","-0.05632564","-0.04547846","-0.52911","-0.045733623","0.06715731","0.004923169","-0.05632564","0.04257154","-0.52911","-0.045733623","0.06715731","0.004923169","-0.05632564","-0.015868457","-0.52911","-0.045733623","0.06715731","0.004923169","6580121277793","6580054316150","6580153031806"
"1589397045967","1847","1362","1500","-46.372078","13.677564","3.1271312","0.00929935","0.07369542","46139","46303","0.0","137.0","-0.568191","1.3570415","0.0","0.0","1.3684531","0.041139904","0.03604965","0.0049855895","0.091370516","-0.05632564","-0.04547846","-0.52911","-0.045733623","0.06715731","0.004923169","-0.05632564","0.04257154","-0.52911","-0.045733623","0.06715731","0.004923169","-0.05632564","-0.015868457","-0.52911","-0.045733623","0.06715731","0.004923169","6580121277793","6580054316150","6580153031806"
"1589397045976","1847","1362","1500","-46.372078","13.677564","3.1271312","0.00929935","0.07369542","46139","46303","0.0","137.0","-0.568191","1.3570415","0.0","0.0","1.3684531","0.041139904","0.03604965","0.0049855895","0.091370516","-0.056330405","-0.045591924","-0.52911","-0.037204575","0.067599274","0.0071172006","-0.056330405","0.042458076","-0.52911","-0.037204575","0.067599274","0.0071172006","-0.056330405","-0.01598192","-0.52911","-0.037204575","0.067599274","0.0071172006","6580121277793","6580054316150","6580185934276"
"1589397045982","1847","1362","1500","-46.37653","13.677586","-3.136751","0.017270595","0.104932435","46139","46304","0.0","175.0","-0.568191","1.3570415","0.0","0.0","1.3684531","0.041139904","0.03604965","0.0049855895","0.091370516","-0.056330405","-0.045591924","-0.52911","-0.037204575","0.067599274","0.0071172006","-0.056330405","0.042458076","-0.52911","-0.037204575","0.067599274","0.0071172006","-0.056330405","-0.01598192","-0.52911","-0.037204575","0.067599274","0.0071172006","6580187083663","6580054316150","6580185934276"
"1589397045993","1847","1362","1500","-46.37653","13.677586","-3.136751","0.017270595","0.104932435","46139","46304","0.0","175.0","-0.568191","1.3570415","0.0","0.0","1.3708506","0.041139904","0.03604965","0.0055608503","0.087439574","-0.056330405","-0.045591924","-0.52911","-0.03717644","0.06695571","0.0076281317","-0.056330405","0.042458076","-0.52911","-0.03717644","0.06695571","0.0076281317","-0.056330405","-0.01598192","-0.52911","-0.03717644","0.06695571","0.0076281317","6580187083663","6580054316150","6580185934276"
"1589397045997","1847","1362","1500","-46.37653","13.677586","-3.136751","0.017270595","0.104932435","46139","46304","0.0","175.0","-0.568191","1.3570415","0.0","0.0","1.3708506","0.041139904","0.03604965","0.0055608503","0.087439574","-0.056330405","-0.045591924","-0.52911","-0.03717644","0.06695571","0.0076281317","-0.056330405","0.042458076","-0.52911","-0.03717644","0.06695571","0.0076281317","-0.056330405","-0.01598192","-0.52911","-0.03717644","0.06695571","0.0076281317","6580187083663","6580054316150","6580218840032"
"1589397046005","1847","1362","1500","-46.37653","13.677586","-3.136751","0.017270595","0.104932435","46139","46304","0.0","175.0","-0.57317764","1.3586717","0.0","0.0","1.3708506","0.032509156","0.036145527","0.0055608503","0.087439574","-0.056330446","-0.045592956","-0.52911","-0.03709956","0.06695512","0.007633275","-0.056330446","0.042457044","-0.52911","-0.03709956","0.06695512","0.007633275","-0.056330446","-0.015982952","-0.52911","-0.03709956","0.06695512","0.007633275","6580187083663","6580054316150","6580218840032"
"1589397046009","1847","1362","1500","-46.37653","13.677586","-3.136751","0.017270595","0.104932435","46139","46304","0.0","175.0","-0.57317764","1.3586717","0.0","0.0","1.3708506","0.032509156","0.036145527","0.0055608503","0.087439574","-0.056330446","-0.045592956","-0.52911","-0.03709956","0.06695512","0.007633275","-0.056330446","0.042457044","-0.52911","-0.03709956","0.06695512","0.007633275","-0.056330446","-0.015982952","-0.52911","-0.03709956","0.06695512","0.007633275","6580187083663","6580054316150","6580218840032"
"1589397046016","1847","1362","1500","-46.37653","13.677586","-3.136751","0.017270595","0.104932435","46139","46304","0.0","175.0","-0.57317764","1.3586717","0.0","0.0","1.3708506","0.032509156","0.036145527","0.0055608503","0.087439574","-0.056330446","-0.045592956","-0.52911","-0.03709956","0.06695512","0.007633275","-0.056330446","0.042457044","-0.52911","-0.03709956","0.06695512","0.007633275","-0.056330446","-0.015982952","-0.52911","-0.03709956","0.06695512","0.007633275","6580187083663","6580054316150","6580218840032"
"1589397046024","1847","1362","1500","-46.37653","13.677586","-3.136751","0.017270595","0.104932435","46140","46305","0.0","175.0","-0.57317764","1.3586717","0.0","0.0","1.3708506","0.032509156","0.036145527","0.0055608503","0.087439574","-0.05633432","-0.045709036","-0.52911","-0.028382909","0.066562496","0.009269084","-0.05633432","0.042340964","-0.52911","-0.028382909","0.066562496","0.009269084","-0.05633432","-0.016099032","-0.52911","-0.028382909","0.066562496","0.009269084","6580187083663","6580054316150","6580218840032"
"1589397046028","1847","1362","1500","-46.38543","13.677542","-3.136751","0.033345893","0.09443919","46140","46305","213.0","249.0","-0.57317764","1.3586717","0.0","0.0","1.3708506","0.032509156","0.036145527","0.0055608503","0.087439574","-0.05633432","-0.045709036","-0.52911","-0.028382909","0.066562496","0.009269084","-0.05633432","0.042340964","-0.52911","-0.028382909","0.066562496","0.009269084","-0.05633432","-0.016099032","-0.52911","-0.028382909","0.066562496","0.009269084","6580187083663","6580054316150","6580218840032"
"1589397046034","1847","1362","1500","-46.38543","13.677542","-3.136751","0.033345893","0.09443919","46140","46305","213.0","249.0","-0.57317764","1.3586717","0.0","0.0","1.3751659","0.032509156","0.036145527","0.0055608503","0.087439574","-0.05633432","-0.045709036","-0.52911","-0.028382909","0.066562496","0.009269084","-0.05633432","0.042340964","-0.52911","-0.028382909","0.066562496","0.009269084","-0.05633432","-0.016099032","-0.52911","-0.028382909","0.066562496","0.009269084","6580252889285","6580054316150","6580251740022"
"1589397046039","1847","1362","1500","-46.38543","13.677542","-3.136751","0.033345893","0.09443919","46140","46305","213.0","249.0","-0.57317764","1.3586717","0.0","0.0","1.3751659","0.032509156","0.036145527","0.0065196175","0.08274161","-0.05633432","-0.045709036","-0.52911","-0.028356874","0.06595112","0.009773414","-0.05633432","0.042340964","-0.52911","-0.028356874","0.06595112","0.009773414","-0.05633432","-0.016099032","-0.52911","-0.028356874","0.06595112","0.009773414","6580252889285","6580054316150","6580251740022"
"1589397046047","1847","1362","1500","-46.38543","13.677542","-3.136751","0.033345893","0.09443919","46140","46305","213.0","249.0","-0.57317764","1.3586717","0.0","0.0","1.3751659","0.032509156","0.036145527","0.0065196175","0.08274161","-0.05633432","-0.045709036","-0.52911","-0.028356874","0.06595112","0.009773414","-0.05633432","0.042340964","-0.52911","-0.028356874","0.06595112","0.009773414","-0.05633432","-0.016099032","-0.52911","-0.028356874","0.06595112","0.009773414","6580252889285","6580054316150","6580251740022"
"1589397046060","1847","1362","1500","-46.38543","13.677542","-3.136751","0.033345893","0.09443919","46140","46305","213.0","249.0","-0.57931507","1.3598224","0.0","0.0","1.3751659","0.02924865","0.03595377","0.0065196175","0.08274161","-0.05633345","-0.04568014","-0.52911","-0.030509396","0.065971956","0.00963155","-0.05633345","0.04236986","-0.52911","-0.030509396","0.065971956","0.00963155","-0.05633345","-0.016070139","-0.52911","-0.030509396","0.065971956","0.00963155","6580252889285","6580054316150","6580251740022"
"1589397046065","1833","1336","1500","-46.38543","13.677542","-3.136751","0.033345893","0.09443919","46140","46305","213.0","249.0","-0.57931507","1.3598224","0.0","0.0","1.3751659","0.02924865","0.03595377","0.0065196175","0.08274161","-0.05633345","-0.04568014","-0.52911","-0.030509396","0.065971956","0.00963155","-0.05633345","0.04236986","-0.52911","-0.030509396","0.065971956","0.00963155","-0.05633345","-0.016070139","-0.52911","-0.030509396","0.065971956","0.00963155","6580252889285","6580054316150","6580251740022"
"1589397046072","1833","1336","1500","-46.38543","13.677542","-3.136751","0.033345893","0.09443919","46140","46305","213.0","249.0","-0.57931507","1.3598224","0.0","0.0","1.3751659","0.02924865","0.03595377","0.0065196175","0.08274161","-0.05633345","-0.04568014","-0.52911","-0.030509396","0.065971956","0.00963155","-0.05633345","0.04236986","-0.52911","-0.030509396","0.065971956","0.00963155","-0.05633345","-0.016070139","-0.52911","-0.030509396","0.065971956","0.00963155","6580252889285","6580054316150","6580284637470"
"1589397046077","1833","1336","1500","-46.38543","13.677542","-3.136751","0.033345893","0.09443919","46141","46307","213.0","249.0","-0.57931507","1.3598224","0.0","0.0","1.3751659","0.02924865","0.03595377","0.0065196175","0.08274161","-0.056334745","-0.045723997","-0.52911","-0.027100895","0.06450397","0.012872404","-0.056334745","0.042326003","-0.52911","-0.027100895","0.06450397","0.012872404","-0.056334745","-0.016113997","-0.52911","-0.027100895","0.06450397","0.012872404","6580252889285","6580185934276","6580284637470"
"1589397046094","1833","1336","1500","-46.39878","13.677349","-3.1174476","0.05671484","0.12360183","46141","46307","228.0","753.0","-0.57931507","1.3598224","0.0","0.0","1.3751659","0.02924865","0.03595377","0.0065196175","0.08274161","-0.056334745","-0.045723997","-0.52911","-0.027170392","0.06611255","0.011520772","-0.056334745","0.042326003","-0.52911","-0.027170392","0.06611255","0.011520772","-0.056334745","-0.016113997","-0.52911","-0.027170392","0.06611255","0.011520772","6580318691094","6580185934276","6580284637470"
"1589397046100","1833","1336","1500","-46.39878","13.677349","-3.1174476","0.05671484","0.12360183","46141","46307","228.0","753.0","-0.5872745","1.3612609","0.0","0.0","1.3799609","0.02924865","0.03595377","0.0064237406","0.07507148","-0.056334745","-0.045723997","-0.52911","-0.027170392","0.06611255","0.011520772","-0.056334745","0.042326003","-0.52911","-0.027170392","0.06611255","0.011520772","-0.056334745","-0.016113997","-0.52911","-0.027170392","0.06611255","0.011520772","6580318691094","6580185934276","6580284637470"
"1589397046103","1833","1336","1500","-46.39878","13.677349","-3.1174476","0.05671484","0.12360183","46141","46307","228.0","753.0","-0.5872745","1.3612609","0.0","0.0","1.3799609","0.02924865","0.03595377","0.0064237406","0.07507148","-0.056334745","-0.045723997","-0.52911","-0.027170392","0.06611255","0.011520772","-0.056334745","0.042326003","-0.52911","-0.027170392","0.06611255","0.011520772","-0.056334745","-0.016113997","-0.52911","-0.027170392","0.06611255","0.011520772","6580318691094","6580185934276","6580284637470"
"1589397046111","1833","1336","1500","-46.39878","13.677349","-3.1174476","0.05671484","0.12360183","46141","46307","228.0","753.0","-0.5872745","1.3612609","0.0","0.0","1.3799609","0.03500248","0.03566614","0.0064237406","0.07507148","-0.056333303","-0.045675498","-0.52911","-0.030783504","0.06615364","0.011282026","-0.056333303","0.042374503","-0.52911","-0.030783504","0.06615364","0.011282026","-0.056333303","-0.016065495","-0.52911","-0.030783504","0.06615364","0.011282026","6580318691094","6580185934276","6580317541738"
"1589397046123","1833","1336","1500","-46.39878","13.677349","-3.1174476","0.05671484","0.12360183","46141","46307","228.0","753.0","-0.5872745","1.3612609","0.0","0.0","1.3799609","0.03500248","0.03566614","0.0064237406","0.07507148","-0.056333303","-0.045675498","-0.52911","-0.030783504","0.06615364","0.011282026","-0.056333303","0.042374503","-0.52911","-0.030783504","0.06615364","0.011282026","-0.056333303","-0.016065495","-0.52911","-0.030783504","0.06615364","0.011282026","6580318691094","6580185934276","6580317541738"
"1589397046128","1833","1336","1500","-46.39878","13.677349","-3.1174476","0.05671484","0.12360183","46142","46309","254.0","1208.0","-0.5872745","1.3612609","0.0","0.0","1.3799609","0.03500248","0.03566614","0.0064237406","0.07507148","-0.056333303","-0.045675498","-0.52911","-0.030783504","0.06615364","0.011282026","-0.05633064","0.04245189","-0.52911","-0.03650704","0.06706047","0.012011145","-0.05633064","-0.015988111","-0.52911","-0.03650704","0.06706047","0.012011145","6580318691094","6580185934276","6580317541738"
"1589397046134","1833","1336","1500","-46.412125","13.676897","-3.0981443","0.07774689","0.14984821","46142","46309","254.0","1208.0","-0.5872745","1.3612609","0.0","0.0","1.3848516","0.03500248","0.03566614","0.0064237406","0.07507148","-0.05633064","-0.045598112","-0.52911","-0.03650704","0.06706047","0.012011145","-0.05633064","0.04245189","-0.52911","-0.03650704","0.06706047","0.012011145","-0.05633064","-0.015988111","-0.52911","-0.03650704","0.06706047","0.012011145","6580318691094","6580185934276","6580317541738"
"1589397046143","1833","1336","1500","-46.412125","13.676897","-3.0981443","0.07774689","0.14984821","46142","46309","254.0","1208.0","-0.5872745","1.3612609","0.0","0.0","1.3848516","0.03500248","0.03566614","0.0058484804","0.06481267","-0.05633064","-0.045598112","-0.52911","-0.036557116","0.06628284","0.011393498","-0.05633064","0.04245189","-0.52911","-0.036557116","0.06628284","0.011393498","-0.05633064","-0.015988111","-0.52911","-0.036557116","0.06628284","0.011393498","6580318691094","6580185934276","6580317541738"
"1589397046155","1833","1336","1500","-46.412125","13.676897","-3.0981443","0.07774689","0.14984821","46142","46309","254.0","1208.0","-0.59926164","1.3640419","0.0","0.0","1.3848516","0.04334554","0.035570264","0.0058484804","0.06481267","-0.05633011","-0.045584187","-0.52911","-0.03759502","0.066294596","0.011324762","-0.05633011","0.042465813","-0.52911","-0.03759502","0.066294596","0.011324762","-0.05633011","-0.015974184","-0.52911","-0.03759502","0.066294596","0.011324762","6580318691094","6580185934276","6580350458220"
"1589397046162","1811","1321","1500","-46.412125","13.676897","-3.0981443","0.07774689","0.14984821","46142","46309","254.0","1208.0","-0.59926164","1.3640419","0.0","0.0","1.3848516","0.04334554","0.035570264","0.0058484804","0.06481267","-0.05633011","-0.045584187","-0.52911","-0.03759502","0.066294596","0.011324762","-0.05633011","0.042465813","-0.52911","-0.03759502","0.066294596","0.011324762","-0.05633011","-0.015974184","-0.52911","-0.03759502","0.066294596","0.011324762","6580384519842","6580185934276","6580350458220"
"1589397046167","1811","1321","1500","-46.412125","13.676897","-3.0981443","0.07774689","0.14984821","46142","46309","254.0","1208.0","-0.59926164","1.3640419","0.0","0.0","1.3848516","0.04334554","0.035570264","0.0058484804","0.06481267","-0.05633011","-0.045584187","-0.52911","-0.03759502","0.066294596","0.011324762","-0.05633011","0.042465813","-0.52911","-0.03759502","0.066294596","0.011324762","-0.05633011","-0.015974184","-0.52911","-0.03759502","0.066294596","0.011324762","6580384519842","6580185934276","6580350458220"
"1589397046175","1811","1321","1500","-46.412125","13.676897","-3.0981443","0.07774689","0.14984821","46143","46311","254.0","1208.0","-0.59926164","1.3640419","0.0","0.0","1.3848516","0.04334554","0.035570264","0.0058484804","0.06481267","-0.05633011","-0.045584187","-0.52911","-0.03759502","0.066294596","0.011324762","-0.05633011","0.042465813","-0.52911","-0.03759502","0.066294596","0.011324762","-0.05633011","-0.015974184","-0.52911","-0.03759502","0.066294596","0.011324762","6580384519842","6580185934276","6580350458220"
"1589397046191","1811","1321","1500","-46.412125","13.676897","-3.0981443","0.07774689","0.14984821","46143","46311","340.0","1573.0","-0.59926164","1.3640419","0.0","0.0","1.3848516","0.04334554","0.035570264","0.0058484804","0.06481267","-0.056325343","-0.045472015","-0.52911","-0.0459853","0.06613171","0.011001572","-0.056325343","0.042577986","-0.52911","-0.04604125","0.06539888","0.010254531","-0.056325343","-0.015862012","-0.52911","-0.04604125","0.06539888","0.010254531","6580384519842","6580185934276","6580350458220"
"1589397046201","1811","1321","1500","-46.425457","13.676188","-3.078841","0.09667574","0.17346995","46143","46311","340.0","1573.0","-0.59926164","1.3640419","0.0","0.0","1.387345","0.04334554","0.035570264","0.0046979594","0.05330746","-0.056325343","-0.045472015","-0.52911","-0.04604125","0.06539888","0.010254531","-0.056325343","0.042577986","-0.52911","-0.04604125","0.06539888","0.010254531","-0.056325343","-0.015862012","-0.52911","-0.04604125","0.06539888","0.010254531","6580384519842","6580317541738","6580350458220"
"1589397046211","1811","1321","1500","-46.425457","13.676188","-3.078841","0.09667574","0.17346995","46143","46311","340.0","1573.0","-0.6105775","1.3672066","0.0","0.0","1.387345","0.04986655","0.035570264","0.0046979594","0.05330746","-0.056325793","-0.045481812","-0.52911","-0.045310825","0.065391384","0.010302248","-0.056325793","0.04256819","-0.52911","-0.045310825","0.065391384","0.010302248","-0.056325793","-0.01587181","-0.52911","-0.045310825","0.065391384","0.010302248","6580384519842","6580317541738","6580416282535"
"1589397046228","1811","1321","1500","-46.425457","13.676188","-3.078841","0.09667574","0.17346995","46143","46311","340.0","1573.0","-0.6105775","1.3672066","0.0","0.0","1.387345","0.04986655","0.035570264","0.0046979594","0.05330746","-0.056325793","-0.045481812","-0.52911","-0.045310825","0.065391384","0.010302248","-0.056325793","0.04256819","-0.52911","-0.045310825","0.065391384","0.010302248","-0.056325793","-0.01587181","-0.52911","-0.045310825","0.065391384","0.010302248","6580450340406","6580317541738","6580416282535"
"1589397046234","1811","1321","1500","-46.425457","13.676188","-3.078841","0.09667574","0.17346995","46144","46314","702.0","1965.0","-0.6105775","1.3672066","0.0","0.0","1.3908931","0.04986655","0.035570264","0.0046979594","0.05330746","-0.05632148","-0.045394164","-0.52911","-0.051916104","0.06401528","0.010246036","-0.05632148","0.042655837","-0.52911","-0.051916104","0.06401528","0.010246036","-0.05632148","-0.015784161","-0.52911","-0.051916104","0.06401528","0.010246036","6580450340406","6580317541738","6580416282535"
"1589397046239","1811","1321","1500","-46.4432","13.674729","-3.0402343","0.12261288","0.23333606","46144","46314","702.0","1965.0","-0.6105775","1.3672066","0.0","0.0","1.3908931","0.04986655","0.035570264","0.0046979594","0.05330746","-0.05632148","-0.045394164","-0.52911","-0.051916104","0.06401528","0.010246036","-0.05632148","0.042655837","-0.52911","-0.051916104","0.06401528","0.010246036","-0.05632148","-0.015784161","-0.52911","-0.05183915","0.06441234","0.011368943","6580450340406","6580317541738","6580449190895"
"1589397046243","1811","1321","1500","-46.4432","13.674729","-3.0402343","0.12261288","0.23333606","46144","46314","702.0","1965.0","-0.6105775","1.3672066","0.0","0.0","1.3908931","0.04986655","0.035570264","0.0044103293","0.03921358","-0.05632148","-0.045394164","-0.52911","-0.05183915","0.06441234","0.011368943","-0.05632148","0.042655837","-0.52911","-0.05183915","0.06441234","0.011368943","-0.05632148","-0.015784161","-0.52911","-0.05183915","0.06441234","0.011368943","6580450340406","6580317541738","6580449190895"
"1589397046258","1811","1321","1500","-46.4432","13.674729","-3.0402343","0.12261288","0.23333606","46144","46314","702.0","1965.0","-0.6105775","1.3672066","0.0","0.0","1.3908931","0.04986655","0.035570264","0.0044103293","0.03921358","-0.05632148","-0.045394164","-0.52911","-0.05183915","0.06441234","0.011368943","-0.05632148","0.042655837","-0.52911","-0.05183915","0.06441234","0.011368943","-0.05632148","-0.015784161","-0.52911","-0.05183915","0.06441234","0.011368943","6580450340406","6580317541738","6580449190895"
"1589397046264","1736","1310","1500","-46.4432","13.674729","-3.0402343","0.12261288","0.23333606","46144","46314","702.0","1965.0","-0.62045497","1.3688368","0.0","0.0","1.3908931","0.041715287","0.034995005","0.0044103293","0.03921358","-0.05632539","-0.045473047","-0.52911","-0.04595746","0.064344525","0.011747201","-0.05632539","0.042576954","-0.52911","-0.04595746","0.064344525","0.011747201","-0.05632539","-0.015863042","-0.52911","-0.04595746","0.064344525","0.011747201","6580450340406","6580317541738","6580449190895"
"1589397046272","1736","1310","1500","-46.4432","13.674729","-3.0402343","0.12261288","0.23333606","46144","46314","702.0","1965.0","-0.62045497","1.3688368","0.0","0.0","1.3908931","0.041715287","0.034995005","0.0044103293","0.03921358","-0.05632539","-0.045473047","-0.52911","-0.04595746","0.064344525","0.011747201","-0.05632539","0.042576954","-0.52911","-0.04595746","0.064344525","0.011747201","-0.05632539","-0.015863042","-0.52911","-0.04595746","0.064344525","0.011747201","6580450340406","6580317541738","6580482110043"
"1589397046279","1736","1310","1500","-46.4432","13.674729","-3.0402343","0.12261288","0.23333606","46146","46317","1056.0","2271.0","-0.62045497","1.3688368","0.0","0.0","1.3908931","0.041715287","0.034995005","0.0044103293","0.03921358","-0.05632539","-0.045473047","-0.52911","-0.04595746","0.064344525","0.011747201","-0.05632539","0.042576954","-0.52911","-0.04595746","0.064344525","0.011747201","-0.05632539","-0.015863042","-0.52911","-0.04595746","0.064344525","0.011747201","6580450340406","6580317541738","6580482110043"
"1589397046290","1736","1310","1500","-46.465317","13.672264","-3.0209312","0.15485749","0.248609","46146","46317","1056.0","2271.0","-0.62045497","1.3688368","0.0","0.0","1.3915644","0.041715287","0.034995005","0.003451562","0.023777427","-0.05633005","-0.045582637","-0.52911","-0.03782628","0.065212935","0.012225964","-0.05633005","0.042467363","-0.52911","-0.03782628","0.065212935","0.012225964","-0.05633005","-0.015972637","-0.52911","-0.03782628","0.065212935","0.012225964","6580450340406","6580317541738","6580482110043"
"1589397046294","1736","1310","1500","-46.465317","13.672264","-3.0209312","0.15485749","0.248609","46146","46317","1056.0","2271.0","-0.62045497","1.3688368","0.0","0.0","1.3915644","0.041715287","0.034995005","0.003451562","0.023777427","-0.05633005","-0.045582637","-0.52911","-0.03782628","0.065212935","0.012225964","-0.05633005","0.042467363","-0.52911","-0.03782628","0.065212935","0.012225964","-0.05633005","-0.015972637","-0.52911","-0.03782628","0.065212935","0.012225964","6580450340406","6580317541738","6580482110043"
"1589397046298","1736","1310","1500","-46.465317","13.672264","-3.0209312","0.15485749","0.248609","46146","46317","1056.0","2271.0","-0.6220852","1.3697958","0.0","0.0","1.3915644","0.041715287","0.034995005","0.003451562","0.023777427","-0.05633005","-0.045582637","-0.52911","-0.03782628","0.065212935","0.012225964","-0.05633005","0.042467363","-0.52911","-0.03782628","0.065212935","0.012225964","-0.05633005","-0.015972637","-0.52911","-0.03782628","0.065212935","0.012225964","6580450340406","6580317541738","6580482110043"
"1589397046304","1736","1310","1500","-46.465317","13.672264","-3.0209312","0.15485749","0.248609","46146","46317","1056.0","2271.0","-0.6220852","1.3697958","0.0","0.0","1.3915644","0.041715287","0.034995005","0.003451562","0.023777427","-0.05633005","-0.045582637","-0.52911","-0.03782628","0.065212935","0.012225964","-0.05633005","0.042467363","-0.52911","-0.03782628","0.065212935","0.012225964","-0.05632961","-0.015961288","-0.52911","-0.038671926","0.06522322","0.012170865","6580516175788","6580317541738","6580515027114"
"1589397046310","1736","1310","1500","-46.465317","13.672264","-3.0209312","0.15485749","0.248609","46146","46317","1056.0","2271.0","-0.6220852","1.3697958","0.0","0.0","1.3915644","0.035673764","0.034323867","0.003451562","0.023777427","-0.05632961","-0.04557129","-0.52911","-0.038671926","0.06522322","0.012170865","-0.05632961","0.04247871","-0.52911","-0.038671926","0.06522322","0.012170865","-0.05632961","-0.015961288","-0.52911","-0.038671926","0.06522322","0.012170865","6580516175788","6580317541738","6580515027114"
"1589397046320","1736","1310","1500","-46.465317","13.672264","-3.0209312","0.15485749","0.248609","46146","46317","1056.0","2271.0","-0.6220852","1.3697958","0.0","0.0","1.3915644","0.035673764","0.034323867","0.003451562","0.023777427","-0.05632961","-0.04557129","-0.52911","-0.038671926","0.06522322","0.012170865","-0.05632961","0.04247871","-0.52911","-0.038671926","0.06522322","0.012170865","-0.05632961","-0.015961288","-0.52911","-0.038671926","0.06522322","0.012170865","6580516175788","6580317541738","6580515027114"
"1589397046325","1736","1310","1500","-46.465317","13.672264","-3.0209312","0.15485749","0.248609","46146","46317","1056.0","2271.0","-0.6220852","1.3697958","0.0","0.0","1.3915644","0.035673764","0.034323867","0.003451562","0.023777427","-0.05632961","-0.04557129","-0.52911","-0.038671926","0.06522322","0.012170865","-0.05632961","0.04247871","-0.52911","-0.038671926","0.06522322","0.012170865","-0.05632961","-0.015961288","-0.52911","-0.038671926","0.06522322","0.012170865","6580516175788","6580317541738","6580515027114"
"1589397046331","1736","1310","1500","-46.465317","13.672264","-3.0209312","0.15485749","0.248609","46148","46321","1056.0","2271.0","-0.6220852","1.3697958","0.0","0.0","1.3881121","0.035673764","0.034323867","0.003451562","0.023777427","-0.05632961","-0.04557129","-0.52911","-0.038671926","0.06522322","0.012170865","-0.05632961","0.04247871","-0.52911","-0.038671926","0.06522322","0.012170865","-0.05632961","-0.015961288","-0.52911","-0.038671926","0.06522322","0.012170865","6580516175788","6580317541738","6580515027114"
"1589397046338","1736","1310","1500","-46.465317","13.672264","-3.0209312","0.15485749","0.248609","46148","46321","1265.0","2643.0","-0.6220852","1.3697958","0.0","0.0","1.3881121","0.035673764","0.034323867","0.003451562","0.023777427","-0.05633256","-0.04565254","-0.52911","-0.032626595","0.066601396","0.013563963","-0.05633256","0.04239746","-0.52911","-0.032626595","0.066601396","0.013563963","-0.05633256","-0.016042536","-0.52911","-0.032626595","0.066601396","0.013563963","6580516175788","6580317541738","6580547945642"
"1589397046344","1736","1310","1500","-46.491756","13.668539","-2.9823246","0.19277881","0.30096123","46148","46321","1265.0","2643.0","-0.6220852","1.3697958","0.0","0.0","1.3881121","0.035673764","0.034323867","0.0023010415","0.008245398","-0.05633256","-0.04565254","-0.52911","-0.03266772","0.064874955","0.013096839","-0.05633256","0.04239746","-0.52911","-0.03266772","0.064874955","0.013096839","-0.05633256","-0.016042536","-0.52911","-0.03266772","0.064874955","0.013096839","6580516175788","6580317541738","6580547945642"
"1589397046361","1736","1310","1500","-46.491756","13.668539","-2.9823246","0.19277881","0.30096123","46148","46321","1265.0","2643.0","-0.6220852","1.3697958","0.0","0.0","1.3881121","0.026084041","0.033269223","0.0023010415","0.008245398","-0.05633318","-0.045671627","-0.52911","-0.031245647","0.0648563","0.013189006","-0.05633318","0.042378373","-0.52911","-0.031245647","0.0648563","0.013189006","-0.05633318","-0.016061626","-0.52911","-0.031245647","0.0648563","0.013189006","6580582028623","6580317541738","6580547945642"
"1589397046368","1716","1309","1500","-46.491756","13.668539","-2.9823246","0.19277881","0.30096123","46148","46321","1265.0","2643.0","-0.6264006","1.3718096","0.0","0.0","1.3881121","0.026084041","0.033269223","0.0023010415","0.008245398","-0.05633318","-0.045671627","-0.52911","-0.031245647","0.0648563","0.013189006","-0.05633318","0.042378373","-0.52911","-0.031245647","0.0648563","0.013189006","-0.05633318","-0.016061626","-0.52911","-0.031245647","0.0648563","0.013189006","6580582028623","6580317541738","6580547945642"
"1589397046374","1716","1309","1500","-46.491756","13.668539","-2.9823246","0.19277881","0.30096123","46150","46324","1265.0","2643.0","-0.6264006","1.3718096","0.0","0.0","1.3881121","0.026084041","0.033269223","0.0023010415","0.008245398","-0.05633318","-0.045671627","-0.52911","-0.031245647","0.0648563","0.013189006","-0.05633318","0.042378373","-0.52911","-0.031245647","0.0648563","0.013189006","-0.05633318","-0.016061626","-0.52911","-0.031245647","0.0648563","0.013189006","6580582028623","6580449190895","6580547945642"
"1589397046378","1716","1309","1500","-46.491756","13.668539","-2.9823246","0.19277881","0.30096123","46150","46324","1481.0","2845.0","-0.6264006","1.3718096","0.0","0.0","1.3881121","0.026084041","0.033269223","0.0023010415","0.008245398","-0.05633318","-0.045671627","-0.52911","-0.031245647","0.0648563","0.013189006","-0.05633318","0.042378373","-0.52911","-0.031245647","0.0648563","0.013189006","-0.05633318","-0.016061626","-0.52911","-0.031245647","0.0648563","0.013189006","6580582028623","6580449190895","6580580878275"
"1589397046390","1716","1309","1500","-46.491756","13.668539","-2.9823246","0.19277881","0.30096123","46150","46324","1481.0","2845.0","-0.6264006","1.3718096","0.0","0.0","1.3855228","0.026084041","0.033269223","0.0022051646","-0.008724782","-0.056336667","-0.04580063","-0.52911","-0.021650866","0.064319015","0.014277562","-0.056336667","0.04224937","-0.52911","-0.021650866","0.064319015","0.014277562","-0.056336667","-0.016190628","-0.52911","-0.021650866","0.064319015","0.014277562","6580582028623","6580449190895","6580580878275"
"1589397046393","1716","1309","1500","-46.513695","13.664798","-2.9630213","0.21800682","0.30947167","46150","46324","1481.0","2845.0","-0.6264006","1.3718096","0.0","0.0","1.3855228","0.026084041","0.033269223","0.0022051646","-0.008724782","-0.056336667","-0.04580063","-0.52911","-0.021650866","0.064319015","0.014277562","-0.056336667","0.04224937","-0.52911","-0.021650866","0.064319015","0.014277562","-0.056336667","-0.016190628","-0.52911","-0.021650866","0.064319015","0.014277562","6580582028623","6580449190895","6580580878275"
"1589397046397","1716","1309","1500","-46.513695","13.664798","-2.9630213","0.21800682","0.30947167","46150","46324","1481.0","2845.0","-0.6217016","1.3717136","0.0","0.0","1.3855228","0.026084041","0.033269223","0.0022051646","-0.008724782","-0.056336667","-0.04580063","-0.52911","-0.021650866","0.064319015","0.014277562","-0.056336667","0.04224937","-0.52911","-0.021650866","0.064319015","0.014277562","-0.056336667","-0.016190628","-0.52911","-0.021650866","0.064319015","0.014277562","6580582028623","6580449190895","6580580878275"
"1589397046405","1716","1309","1500","-46.513695","13.664798","-2.9630213","0.21800682","0.30947167","46150","46324","1481.0","2845.0","-0.6217016","1.3717136","0.0","0.0","1.3855228","0.026084041","0.03278984","0.0022051646","-0.008724782","-0.056335893","-0.0457676","-0.52911","-0.024110356","0.06435387","0.014119443","-0.056335893","0.0422824","-0.52911","-0.024110356","0.06435387","0.014119443","-0.056335893","-0.016157601","-0.52911","-0.024110356","0.06435387","0.014119443","6580582028623","6580449190895","6580613794757"
"1589397046410","1716","1309","1500","-46.513695","13.664798","-2.9630213","0.21800682","0.30947167","46150","46324","1481.0","2845.0","-0.6217016","1.3717136","0.0","0.0","1.3855228","0.022631742","0.03278984","0.0022051646","-0.008724782","-0.056335893","-0.0457676","-0.52911","-0.024110356","0.06435387","0.014119443","-0.056335893","0.0422824","-0.52911","-0.024110356","0.06435387","0.014119443","-0.056335893","-0.016157601","-0.52911","-0.024110356","0.06435387","0.014119443","6580582028623","6580449190895","6580613794757"
"1589397046425","1716","1309","1500","-46.513695","13.664798","-2.9630213","0.21800682","0.30947167","46150","46324","1481.0","2845.0","-0.6217016","1.3717136","0.0","0.0","1.3855228","0.022631742","0.03278984","0.0022051646","-0.008724782","-0.056335893","-0.0457676","-0.52911","-0.024110356","0.06435387","0.014119443","-0.056335893","0.0422824","-0.52911","-0.024110356","0.06435387","0.014119443","-0.056335893","-0.016157601","-0.52911","-0.024110356","0.06435387","0.014119443","6580647852070","6580449190895","6580613794757"
"1589397046429","1716","1309","1500","-46.513695","13.664798","-2.9630213","0.21800682","0.30947167","46152","46328","1481.0","2845.0","-0.6217016","1.3717136","0.0","0.0","1.3855228","0.022631742","0.03278984","0.0022051646","-0.008724782","-0.056335893","-0.0457676","-0.52911","-0.024110356","0.06435387","0.014119443","-0.056335893","0.0422824","-0.52911","-0.024110356","0.06435387","0.014119443","-0.056335893","-0.016157601","-0.52911","-0.024110356","0.06435387","0.014119443","6580647852070","6580449190895","6580613794757"
"1589397046437","1716","1309","1500","-46.513695","13.664798","-2.9630213","0.21800682","0.30947167","46152","46328","1623.0","2968.0","-0.6217016","1.3717136","0.0","0.0","1.3839885","0.022631742","0.03278984","0.0022051646","-0.008724782","-0.056335893","-0.0457676","-0.52911","-0.024110356","0.06435387","0.014119443","-0.056335893","0.0422824","-0.52911","-0.024110356","0.06435387","0.014119443","-0.056335893","-0.016157601","-0.52911","-0.024110356","0.06435387","0.014119443","6580647852070","6580449190895","6580646702218"
"1589397046441","1716","1309","1500","-46.513695","13.664798","-2.9630213","0.21800682","0.30947167","46152","46328","1623.0","2968.0","-0.6217016","1.3717136","0.0","0.0","1.3839885","0.022631742","0.03278984","0.0019175345","-0.025790839","-0.05633696","-0.04581405","-0.52911","-0.02064448","0.061234627","0.015895678","-0.05633696","0.042235952","-0.52911","-0.02064448","0.061234627","0.015895678","-0.05633696","-0.016204046","-0.52911","-0.02064448","0.061234627","0.015895678","6580647852070","6580449190895","6580646702218"
"1589397046445","1716","1309","1500","-46.539875","13.659549","-2.9244149","0.24961321","0.35573763","46152","46328","1623.0","2968.0","-0.6217016","1.3717136","0.0","0.0","1.3839885","0.022631742","0.03278984","0.0019175345","-0.025790839","-0.05633696","-0.04581405","-0.52911","-0.02064448","0.061234627","0.015895678","-0.05633696","0.042235952","-0.52911","-0.02064448","0.061234627","0.015895678","-0.05633696","-0.016204046","-0.52911","-0.02064448","0.061234627","0.015895678","6580647852070","6580449190895","6580646702218"
"1589397046466","1716","1309","1500","-46.539875","13.659549","-2.9244149","0.24961321","0.35573763","46152","46328","1623.0","2968.0","-0.61690676","1.3718096","0.0","0.0","1.3839885","0.021385077","0.032022826","0.0019175345","-0.025790839","-0.056336705","-0.04580218","-0.52911","-0.02152815","0.06124862","0.015841598","-0.056336705","0.04224782","-0.52911","-0.02152815","0.06124862","0.015841598","-0.056336705","-0.016192175","-0.52911","-0.02152815","0.06124862","0.015841598","6580647852070","6580449190895","6580646702218"
"1589397046476","1762","1313","1500","-46.539875","13.659549","-2.9244149","0.24961321","0.35573763","46155","46333","1623.0","2968.0","-0.61690676","1.3718096","0.0","0.0","1.3839885","0.021385077","0.032022826","0.0019175345","-0.025790839","-0.056336705","-0.04580218","-0.52911","-0.02152815","0.06124862","0.015841598","-0.056336705","0.04224782","-0.52911","-0.02152815","0.06124862","0.015841598","-0.056336705","-0.016192175","-0.52911","-0.02152815","0.06124862","0.015841598","6580647852070","6580449190895","6580679624032"
"1589397046484","1762","1313","1500","-46.539875","13.659549","-2.9244149","0.24961321","0.35573763","46155","46333","1820.0","3255.0","-0.61690676","1.3718096","0.0","0.0","1.3839885","0.021385077","0.032022826","0.0019175345","-0.025790839","-0.056336705","-0.04580218","-0.52911","-0.02152815","0.06124862","0.015841598","-0.056336705","0.04224782","-0.52911","-0.02152815","0.06124862","0.015841598","-0.056336705","-0.016192175","-0.52911","-0.02152815","0.06124862","0.015841598","6580647852070","6580449190895","6580679624032"
"1589397046491","1762","1313","1500","-46.539875","13.659549","-2.9244149","0.24961321","0.35573763","46155","46333","1820.0","3255.0","-0.61690676","1.3718096","0.0","0.0","1.3841803","0.021385077","0.032022826","0.0015340276","-0.042856894","-0.056336705","-0.04580218","-0.52911","-0.02152815","0.06124862","0.015841598","-0.056336705","0.04224782","-0.52911","-0.02152815","0.06124862","0.015841598","-0.056336705","-0.016192175","-0.52911","-0.02152815","0.06124862","0.015841598","6580647852070","6580449190895","6580679624032"
"1589397046495","1762","1313","1500","-46.57449","13.651207","-2.8858082","0.29586133","0.39737698","46155","46333","1820.0","3255.0","-0.61690676","1.3718096","0.0","0.0","1.3841803","0.021385077","0.032022826","0.0015340276","-0.042856894","-0.056337066","-0.04581895","-0.52911","-0.020270491","0.059652023","0.017386302","-0.056337066","0.04223105","-0.52911","-0.020270491","0.059652023","0.017386302","-0.056337066","-0.016208949","-0.52911","-0.020270491","0.059652023","0.017386302","6580647852070","6580449190895","6580679624032"
"1589397046504","1762","1313","1500","-46.57449","13.651207","-2.8858082","0.29586133","0.39737698","46155","46333","1820.0","3255.0","-0.61690676","1.3718096","0.0","0.0","1.3841803","0.021385077","0.032022826","0.0015340276","-0.042856894","-0.056337066","-0.04581895","-0.52911","-0.020270491","0.059652023","0.017386302","-0.056337066","0.04223105","-0.52911","-0.020270491","0.059652023","0.017386302","-0.056336686","-0.016191402","-0.52911","-0.021576632","0.059674643","0.01730842","6580713700286","6580449190895","6580712550155"
"1589397046507","1762","1313","1500","-46.57449","13.651207","-2.8858082","0.29586133","0.39737698","46155","46333","1820.0","3255.0","-0.6058786","1.3704671","0.0","0.0","1.3841803","0.023398919","0.03163932","0.0015340276","-0.042856894","-0.056336686","-0.045801405","-0.52911","-0.021576632","0.059674643","0.01730842","-0.056336686","0.042248596","-0.52911","-0.021576632","0.059674643","0.01730842","-0.056336686","-0.016191402","-0.52911","-0.021576632","0.059674643","0.01730842","6580713700286","6580449190895","6580712550155"
"1589397046511","1762","1313","1500","-46.57449","13.651207","-2.8858082","0.29586133","0.39737698","46155","46333","1820.0","3255.0","-0.6058786","1.3704671","0.0","0.0","1.3841803","0.023398919","0.03163932","0.0015340276","-0.042856894","-0.056336686","-0.045801405","-0.52911","-0.021576632","0.059674643","0.01730842","-0.056336686","0.042248596","-0.52911","-0.021576632","0.059674643","0.01730842","-0.056336686","-0.016191402","-0.52911","-0.021576632","0.059674643","0.01730842","6580713700286","6580449190895","6580712550155"
