"timeStamp","surroundings_IR_Left","surroundings_IR_Right","surroundings_UltraSonic","pose2D_x","pose2D_y","pose2D_theta","pose2D_linearVelocity","pose2D_angularVelocity","baseTick_left","baseTick_right","wheelSpeed_SpeedLeft","wheelSpeed_SpeedRight","headPoseWorld_roll","headPoseWorld_pitch","headPoseWorld_yaw","headPoseJoint_roll","headPoseJoint_pitch","headPoseJoint_yaw","baseImu_roll","baseImu_pitch","baseImu_yaw","fishEyeTf_tx","fishEyeTf_ty","fishEyeTf_tz","fishEyeTf_roll","fishEyeTf_pitch","fishEyeTf_yaw","colorTf_tx","colorTf_ty","colorTf_tz","colorTf_roll","colorTf_pitch","colorTf_yaw","depthTf_tx","depthTf_ty","depthTf_tz","depthTf_roll","depthTf_pitch","depthTf_yaw","fishEyeIndex","colorIndex","depthIndex"
"1589396985022","1868","1353","1500","-39.618793","4.647968","-2.895428","0.024901856","0.005096398","34359","34862","165.0","179.0","-0.51496804","1.3515753","0.0","0.0","1.3457255","0.03298864","0.03662491","2.876302E-4","-0.72300637","-0.056332596","-0.045653675","-0.52911","-0.032702245","0.06480707","0.014197793","-0.056332596","0.042396326","-0.52911","-0.032702245","0.06480707","0.014197793","-0.056332596","-0.01604367","-0.52911","-0.032702245","0.06480707","0.014197793","0","6513510115585","6513575926105"
"1589396985027","1868","1353","1500","-39.618793","4.647968","-2.895428","0.02241167","0.004586758","34359","34862","165.0","179.0","-0.51496804","1.3515753","0.0","0.0","1.3457255","0.03298864","0.03662491","2.876302E-4","-0.72300637","-0.056332596","-0.045653675","-0.52911","-0.032702245","0.06480707","0.014197793","-0.056332596","0.042396326","-0.52911","-0.032702245","0.06480707","0.014197793","-0.056332596","-0.01604367","-0.52911","-0.032702245","0.06480707","0.014197793","0","6513510115585","6513575926105"
"1589396985034","1868","1353","1500","-39.618793","4.647968","-2.895428","0.02241167","0.004586758","34359","34862","165.0","179.0","-0.51496804","1.3515753","0.0","0.0","1.3460132","0.03298864","0.03662491","2.876302E-4","-0.72300637","-0.056332596","-0.045653675","-0.52911","-0.032702245","0.06480707","0.014197793","-0.056332596","0.042396326","-0.52911","-0.032702245","0.06480707","0.014197793","-0.056332596","-0.01604367","-0.52911","-0.032702245","0.06480707","0.014197793","0","6513510115585","6513575926105"
"1589396985039","1868","1353","1500","-39.618793","4.647968","-2.895428","0.02241167","0.004586758","34359","34862","165.0","179.0","-0.51496804","1.3515753","0.0","0.0","1.3460132","0.03298864","0.03662491","3.835069E-4","-0.7227188","-0.056332596","-0.045653675","-0.52911","-0.032666367","0.0650259","0.01474645","-0.056332596","0.042396326","-0.52911","-0.032666367","0.0650259","0.01474645","-0.056332596","-0.01604367","-0.52911","-0.032666367","0.0650259","0.01474645","0","6513510115585","6513575926105"
"1589396985045","1868","1353","1500","-39.618793","4.647968","-2.895428","0.02241167","0.004586758","34359","34862","165.0","179.0","-0.51496804","1.3515753","0.0","0.0","1.3460132","0.03298864","0.03662491","3.835069E-4","-0.7227188","-0.056332596","-0.045653675","-0.52911","-0.032666367","0.0650259","0.01474645","-0.056332596","0.042396326","-0.52911","-0.032666367","0.0650259","0.01474645","-0.056332596","-0.01604367","-0.52911","-0.032666367","0.0650259","0.01474645","0","6513510115585","6513575926105"
"1589396985051","1868","1353","1500","-39.618793","4.647968","-2.895428","0.02241167","0.004586758","34359","34862","165.0","179.0","-0.5144885","1.351","0.0","0.0","1.3460132","0.03298864","0.036720786","3.835069E-4","-0.7227188","-0.056332815","-0.045660276","-0.52911","-0.032174416","0.06501866","0.014778412","-0.056332815","0.042389724","-0.52911","-0.032174416","0.06501866","0.014778412","-0.056332815","-0.016050275","-0.52911","-0.032174416","0.06501866","0.014778412","0","6513510115585","6513575926105"
"1589396985056","1868","1353","1500","-39.618793","4.647968","-2.895428","0.02241167","0.004586758","34359","34862","165.0","179.0","-0.5144885","1.351","0.0","0.0","1.3460132","0.03202967","0.036720786","3.835069E-4","-0.7227188","-0.056332815","-0.045660276","-0.52911","-0.032174416","0.06501866","0.014778412","-0.056332815","0.042389724","-0.52911","-0.032174416","0.06501866","0.014778412","-0.056332815","-0.016050275","-0.52911","-0.032174416","0.06501866","0.014778412","0","6513510115585","6513575926105"
"1589396985059","1879","1369","1500","-39.618793","4.647968","-2.895428","0.02241167","0.004586758","34359","34862","165.0","179.0","-0.5144885","1.351","0.0","0.0","1.3460132","0.03202967","0.036720786","3.835069E-4","-0.7227188","-0.056332815","-0.045660276","-0.52911","-0.032174416","0.06501866","0.014778412","-0.056332815","0.042389724","-0.52911","-0.032174416","0.06501866","0.014778412","-0.056332815","-0.016050275","-0.52911","-0.032174416","0.06501866","0.014778412","0","6513510115585","6513575926105"
"1589396985071","1879","1369","1500","-39.618793","4.647968","-2.895428","0.02241167","0.004586758","34359","34862","165.0","179.0","-0.5144885","1.351","0.0","0.0","1.3460132","0.03202967","0.036720786","3.835069E-4","-0.7227188","-0.056332815","-0.045660276","-0.52911","-0.032174416","0.06501866","0.014778412","-0.056332815","0.042389724","-0.52911","-0.032174416","0.06501866","0.014778412","-0.056332815","-0.016050275","-0.52911","-0.032174416","0.06501866","0.014778412","0","6513510115585","6519958572680"
"1589396985079","1879","1369","1500","-39.618793","4.647968","-2.895428","0.020170504","0.004128082","34359","34862","165.0","179.0","-0.5144885","1.351","0.0","0.0","1.3460132","0.03202967","0.036720786","3.835069E-4","-0.7227188","-0.05633323","-0.045673177","-0.52911","-0.031202473","0.06496724","0.01501171","-0.05633323","0.042376824","-0.52911","-0.031202473","0.06496724","0.01501171","-0.05633323","-0.016063174","-0.52911","-0.031202473","0.06496724","0.01501171","0","6513510115585","6519958572680"
"1589396985088","1879","1369","1500","-39.618793","4.647968","-2.895428","0.020170504","0.004128082","34359","34862","165.0","179.0","-0.5144885","1.351","0.0","0.0","1.346301","0.03202967","0.036720786","2.876302E-4","-0.7222394","-0.05633323","-0.045673177","-0.52911","-0.031221002","0.064816445","0.014728077","-0.05633323","0.042376824","-0.52911","-0.031221002","0.064816445","0.014728077","-0.05633323","-0.016063174","-0.52911","-0.031221002","0.064816445","0.014728077","0","6513510115585","6519958572680"
"1589396985093","1879","1369","1500","-39.618793","4.647968","-2.895428","0.020170504","0.004128082","34359","34862","165.0","179.0","-0.5144885","1.351","0.0","0.0","1.346301","0.03202967","0.036720786","2.876302E-4","-0.7222394","-0.05633323","-0.045673177","-0.52911","-0.031221002","0.064816445","0.014728077","-0.05633323","0.042376824","-0.52911","-0.031221002","0.064816445","0.014728077","-0.05633323","-0.016063174","-0.52911","-0.031221002","0.064816445","0.014728077","6519992612850","6513510115585","6519958572680"
"1589396985101","1879","1369","1500","-39.618793","4.647968","-2.895428","0.020170504","0.004128082","34359","34862","165.0","179.0","-0.5124747","1.3504245","0.0","0.0","1.346301","0.03202967","0.036720786","2.876302E-4","-0.7222394","-0.05633323","-0.045673177","-0.52911","-0.031221002","0.064816445","0.014728077","-0.056333072","0.04238178","-0.52911","-0.031589963","0.06482186","0.014704182","-0.056333072","-0.01605822","-0.52911","-0.031589963","0.06482186","0.014704182","6519992612850","6513510115585","6520024351146"
"1589396985106","1879","1369","1500","-39.618793","4.647968","-2.895428","0.020170504","0.004128082","34359","34862","165.0","179.0","-0.5124747","1.3504245","0.0","0.0","1.346301","0.032221463","0.036720786","2.876302E-4","-0.7222394","-0.056333072","-0.045668222","-0.52911","-0.031589963","0.06482186","0.014704182","-0.056333072","0.04238178","-0.52911","-0.031589963","0.06482186","0.014704182","-0.056333072","-0.01605822","-0.52911","-0.031589963","0.06482186","0.014704182","6519992612850","6513510115585","6520024351146"
"1589396985120","1879","1369","1500","-39.618793","4.647968","-2.895428","0.020170504","0.004128082","34359","34862","165.0","179.0","-0.5124747","1.3504245","0.0","0.0","1.346301","0.032221463","0.036720786","2.876302E-4","-0.7222394","-0.056333072","-0.045668222","-0.52911","-0.031589963","0.06482186","0.014704182","-0.056333072","0.04238178","-0.52911","-0.031589963","0.06482186","0.014704182","-0.056333072","-0.01605822","-0.52911","-0.031589963","0.06482186","0.014704182","6519992612850","6513510115585","6520024351146"
"1589396985126","1879","1369","1500","-39.618793","4.647968","-2.895428","0.020170504","0.004128082","34359","34862","165.0","179.0","-0.5124747","1.3504245","0.0","0.0","1.346301","0.032221463","0.036720786","2.876302E-4","-0.7222394","-0.056332987","-0.045665644","-0.52911","-0.03179745","0.064571895","0.014457578","-0.056332987","0.042384356","-0.52911","-0.03179745","0.064571895","0.014457578","-0.056332987","-0.01605564","-0.52911","-0.03179745","0.064571895","0.014457578","6519992612850","6513510115585","6520024351146"
"1589396985134","1879","1369","1500","-39.618793","4.647968","-2.895428","0.018153453","0.003715274","34359","34862","165.0","179.0","-0.5124747","1.3504245","0.0","0.0","1.346301","0.032221463","0.036720786","2.876302E-4","-0.7222394","-0.056332987","-0.045665644","-0.52911","-0.03179745","0.064571895","0.014457578","-0.056332987","0.042384356","-0.52911","-0.03179745","0.064571895","0.014457578","-0.056332987","-0.01605564","-0.52911","-0.03179745","0.064571895","0.014457578","6519992612850","6519958572680","6520024351146"
"1589396985139","1879","1369","1500","-39.618793","4.647968","-2.895428","0.018153453","0.003715274","34359","34862","165.0","179.0","-0.5124747","1.3504245","0.0","0.0","1.3452461","0.032221463","0.036720786","9.587673E-5","-0.72166413","-0.056332987","-0.045665644","-0.52911","-0.03179758","0.06512313","0.014452546","-0.056332987","0.042384356","-0.52911","-0.03179758","0.06512313","0.014452546","-0.056332987","-0.01605564","-0.52911","-0.03179758","0.06512313","0.014452546","6519992612850","6519958572680","6520057244750"
"1589396985144","1879","1369","1500","-39.618793","4.647968","-2.895428","0.018153453","0.003715274","34359","34862","165.0","179.0","-0.5124747","1.3504245","0.0","0.0","1.3452461","0.032221463","0.036720786","9.587673E-5","-0.72166413","-0.056332987","-0.045665644","-0.52911","-0.03179758","0.06512313","0.014452546","-0.056332987","0.042384356","-0.52911","-0.03179758","0.06512313","0.014452546","-0.056332987","-0.01605564","-0.52911","-0.03179758","0.06512313","0.014452546","6519992612850","6519958572680","6520057244750"
"1589396985159","1884","1372","1500","-39.618793","4.647968","-2.895428","0.018153453","0.003715274","34359","34862","165.0","179.0","-0.51017314","1.3498491","0.0","0.0","1.3452461","0.035961453","0.036816664","9.587673E-5","-0.72166413","-0.056332488","-0.04565037","-0.52911","-0.03293525","0.0651395","0.01437851","-0.056332488","0.04239963","-0.52911","-0.03293525","0.0651395","0.01437851","-0.056332488","-0.01604037","-0.52911","-0.03293525","0.0651395","0.01437851","6520091300699","6519958572680","6520057244750"
"1589396985164","1884","1372","1500","-39.618793","4.647968","-2.895428","0.018153453","0.003715274","34359","34862","165.0","179.0","-0.51017314","1.3498491","0.0","0.0","1.3452461","0.035961453","0.036816664","9.587673E-5","-0.72166413","-0.056332488","-0.04565037","-0.52911","-0.03293525","0.0651395","0.01437851","-0.056332488","0.04239963","-0.52911","-0.03293525","0.0651395","0.01437851","-0.056332488","-0.01604037","-0.52911","-0.03293525","0.0651395","0.01437851","6520091300699","6519958572680","6520057244750"
"1589396985173","1884","1372","1500","-39.618793","4.647968","-2.895428","0.018153453","0.003715274","34359","34862","165.0","179.0","-0.51017314","1.3498491","0.0","0.0","1.3452461","0.035961453","0.036816664","9.587673E-5","-0.72166413","-0.056332488","-0.04565037","-0.52911","-0.03293525","0.0651395","0.01437851","-0.056332488","0.04239963","-0.52911","-0.03293525","0.0651395","0.01437851","-0.056332488","-0.01604037","-0.52911","-0.03293525","0.0651395","0.01437851","6520091300699","6519958572680","6520090142973"
"1589396985189","1884","1372","1500","-39.618793","4.647968","-2.895428","0.018153453","0.003715274","34359","34862","165.0","179.0","-0.51017314","1.3498491","0.0","0.0","1.3452461","0.035961453","0.036816664","3.835069E-4","-0.7210888","-0.05633071","-0.045600075","-0.52911","-0.03666696","0.06507348","0.014377318","-0.05633071","0.042449925","-0.52911","-0.03666696","0.06507348","0.014377318","-0.05633071","-0.015990071","-0.52911","-0.03666696","0.06507348","0.014377318","6520091300699","6519958572680","6520090142973"
"1589396985193","1884","1372","1500","-39.618793","4.647968","-2.895428","0.016338108","0.0033437465","34359","34862","165.0","179.0","-0.51017314","1.3498491","0.0","0.0","1.3447666","0.035961453","0.036816664","3.835069E-4","-0.7210888","-0.05633071","-0.045600075","-0.52911","-0.03666696","0.06507348","0.014377318","-0.05633071","0.042449925","-0.52911","-0.03666696","0.06507348","0.014377318","-0.05633071","-0.015990071","-0.52911","-0.03666696","0.06507348","0.014377318","6520091300699","6519958572680","6520090142973"
"1589396985199","1884","1372","1500","-39.618793","4.647968","-2.895428","0.016338108","0.0033437465","34359","34862","165.0","179.0","-0.5075839","1.3491778","0.0","0.0","1.3447666","0.035961453","0.036816664","3.835069E-4","-0.7210888","-0.05633071","-0.045600075","-0.52911","-0.03666696","0.06507348","0.014377318","-0.05633071","0.042449925","-0.52911","-0.03666696","0.06507348","0.014377318","-0.05633071","-0.015990071","-0.52911","-0.03666696","0.06507348","0.014377318","6520091300699","6519958572680","6520090142973"
"1589396985206","1884","1372","1500","-39.618793","4.647968","-2.895428","0.016338108","0.0033437465","34359","34862","165.0","179.0","-0.5075839","1.3491778","0.0","0.0","1.3447666","0.040085033","0.036816664","3.835069E-4","-0.7210888","-0.05633065","-0.04559842","-0.52911","-0.036789946","0.06507524","0.014369321","-0.05633065","0.04245158","-0.52911","-0.036789946","0.06507524","0.014369321","-0.05633065","-0.01598842","-0.52911","-0.036789946","0.06507524","0.014369321","6520091300699","6519958572680","6520123040452"
"1589396985226","1884","1372","1500","-39.618793","4.647968","-2.895428","0.016338108","0.0033437465","34359","34862","165.0","179.0","-0.5075839","1.3491778","0.0","0.0","1.3447666","0.040085033","0.036816664","3.835069E-4","-0.7210888","-0.05633065","-0.04559842","-0.52911","-0.036789946","0.06507524","0.014369321","-0.05633065","0.04245158","-0.52911","-0.036789946","0.06507524","0.014369321","-0.05633065","-0.01598842","-0.52911","-0.036789946","0.06507524","0.014369321","6520157087721","6519958572680","6520123040452"
"1589396985236","1884","1372","1500","-39.618793","4.647968","-2.895428","0.016338108","0.0033437465","34359","34862","165.0","179.0","-0.5075839","1.3491778","0.0","0.0","1.3437117","0.040085033","0.036816664","3.835069E-4","-0.72070533","-0.056328468","-0.045542974","-0.52911","-0.040869407","0.065213196","0.014903202","-0.056328468","0.042507026","-0.52911","-0.040869407","0.065213196","0.014903202","-0.056328468","-0.015932972","-0.52911","-0.040869407","0.065213196","0.014903202","6520157087721","6519958572680","6520155938241"
"1589396985241","1884","1372","1500","-39.618793","4.647968","-2.895428","0.014704297","0.003009372","34359","34862","165.0","179.0","-0.5075839","1.3491778","0.0","0.0","1.3437117","0.040085033","0.036816664","8.628905E-4","-0.72070533","-0.056328468","-0.045542974","-0.52911","-0.040869407","0.065213196","0.014903202","-0.056328468","0.042507026","-0.52911","-0.040869407","0.065213196","0.014903202","-0.056328468","-0.015932972","-0.52911","-0.040869407","0.065213196","0.014903202","6520157087721","6519958572680","6520155938241"
"1589396985255","1884","1372","1500","-39.618793","4.647968","-2.895428","0.014704297","0.003009372","34359","34862","165.0","179.0","-0.50576186","1.3492738","0.0","0.0","1.3437117","0.040085033","0.036816664","8.628905E-4","-0.72070533","-0.056328468","-0.045542974","-0.52911","-0.040869407","0.065213196","0.014903202","-0.05632864","0.0425029","-0.52911","-0.0405619","0.06520862","0.014923235","-0.05632864","-0.015937097","-0.52911","-0.0405619","0.06520862","0.014923235","6520157087721","6519958572680","6520155938241"
"1589396985264","1883","1376","1500","-39.618793","4.647968","-2.895428","0.014704297","0.003009372","34359","34862","165.0","179.0","-0.50576186","1.3492738","0.0","0.0","1.3437117","0.04324964","0.036816664","8.628905E-4","-0.72070533","-0.05632864","-0.0455471","-0.52911","-0.0405619","0.06520862","0.014923235","-0.05632864","0.0425029","-0.52911","-0.0405619","0.06520862","0.014923235","-0.05632864","-0.015937097","-0.52911","-0.0405619","0.06520862","0.014923235","6520157087721","6520090142973","6520155938241"
"1589396985268","1883","1376","1500","-39.618793","4.647968","-2.895428","0.014704297","0.003009372","34359","34862","165.0","179.0","-0.50576186","1.3492738","0.0","0.0","1.3437117","0.04324964","0.036816664","8.628905E-4","-0.72070533","-0.05632864","-0.0455471","-0.52911","-0.0405619","0.06520862","0.014923235","-0.05632864","0.0425029","-0.52911","-0.0405619","0.06520862","0.014923235","-0.05632864","-0.015937097","-0.52911","-0.0405619","0.06520862","0.014923235","6520157087721","6520090142973","6520155938241"
"1589396985274","1883","1376","1500","-39.618793","4.647968","-2.895428","0.014704297","0.003009372","34359","34862","165.0","179.0","-0.50576186","1.3492738","0.0","0.0","1.3437117","0.04324964","0.036816664","8.628905E-4","-0.72070533","-0.05632864","-0.0455471","-0.52911","-0.0405619","0.06520862","0.014923235","-0.05632864","0.0425029","-0.52911","-0.0405619","0.06520862","0.014923235","-0.05632864","-0.015937097","-0.52911","-0.0405619","0.06520862","0.014923235","6520157087721","6520090142973","6520188841765"
"1589396985295","1883","1376","1500","-39.618793","4.647968","-2.895428","0.014704297","0.003009372","34359","34862","0.0","0.0","-0.50576186","1.3492738","0.0","0.0","1.344287","0.04324964","0.036816664","0.001725781","-0.72070533","-0.05632682","-0.04550455","-0.52911","-0.04364395","0.06512023","0.016081491","-0.05632682","0.04254545","-0.52911","-0.04364395","0.06512023","0.016081491","-0.05632682","-0.01589455","-0.52911","-0.04364395","0.06512023","0.016081491","6520222877471","6520090142973","6520188841765"
"1589396985304","1883","1376","1500","-39.618793","4.647968","-2.895428","0.0132338675","0.0027084348","34359","34862","0.0","0.0","-0.50355625","1.3492738","0.0","0.0","1.344287","0.04324964","0.036816664","0.001725781","-0.72070533","-0.05632715","-0.04551198","-0.52911","-0.043090437","0.06511135","0.016117504","-0.05632715","0.04253802","-0.52911","-0.043090437","0.06511135","0.016117504","-0.05632715","-0.015901977","-0.52911","-0.043090437","0.06511135","0.016117504","6520222877471","6520090142973","6520221728642"
"1589396985317","1883","1376","1500","-39.618793","4.647968","-2.895428","0.0132338675","0.0027084348","34359","34862","0.0","0.0","-0.50355625","1.3492738","0.0","0.0","1.344287","0.044688098","0.036816664","0.001725781","-0.72070533","-0.05632715","-0.04551198","-0.52911","-0.043090437","0.06511135","0.016117504","-0.05632715","0.04253802","-0.52911","-0.043090437","0.06511135","0.016117504","-0.05632715","-0.015901977","-0.52911","-0.043090437","0.06511135","0.016117504","6520222877471","6520090142973","6520221728642"
"1589396985324","1883","1376","1500","-39.618793","4.647968","-2.895428","0.0132338675","0.0027084348","34359","34862","0.0","0.0","-0.50355625","1.3492738","0.0","0.0","1.344287","0.044688098","0.036816664","0.001725781","-0.72070533","-0.05632715","-0.04551198","-0.52911","-0.043090437","0.06511135","0.016117504","-0.05632715","0.04253802","-0.52911","-0.043090437","0.06511135","0.016117504","-0.05632715","-0.015901977","-0.52911","-0.043090437","0.06511135","0.016117504","6520222877471","6520090142973","6520221728642"
"1589396985328","1883","1376","1500","-39.618793","4.647968","-2.895428","0.0132338675","0.0027084348","34359","34862","0.0","0.0","-0.50355625","1.3492738","0.0","0.0","1.344287","0.044688098","0.036816664","0.001725781","-0.72070533","-0.05632715","-0.04551198","-0.52911","-0.043090437","0.06511135","0.016117504","-0.05632715","0.04253802","-0.52911","-0.043090437","0.06511135","0.016117504","-0.05632715","-0.015901977","-0.52911","-0.043090437","0.06511135","0.016117504","6520222877471","6520090142973","6520254617317"
"1589396985338","1883","1376","1500","-39.618793","4.647968","-2.895428","0.0132338675","0.0027084348","34359","34862","0.0","0.0","-0.50355625","1.3492738","0.0","0.0","1.3468763","0.044688098","0.036816664","0.001725781","-0.72070533","-0.05632629","-0.04549264","-0.52911","-0.04441619","0.064770825","0.017805906","-0.05632629","0.04255736","-0.52911","-0.04441619","0.064770825","0.017805906","-0.05632629","-0.015882637","-0.52911","-0.04441619","0.064770825","0.017805906","6520222877471","6520090142973","6520254617317"
"1589396985355","1883","1376","1500","-39.618793","4.647968","-2.895428","0.01191048","0.0024375913","34359","34862","0.0","0.0","-0.50355625","1.3492738","0.0","0.0","1.3468763","0.044688098","0.036816664","0.0027804251","-0.72118473","-0.05632629","-0.04549264","-0.52911","-0.04441619","0.064770825","0.017805906","-0.05632612","0.042561073","-0.52911","-0.044692937","0.06477574","0.017788","-0.05632612","-0.015878925","-0.52911","-0.044692937","0.06477574","0.017788","6520288660308","6520090142973","6520254617317"
"1589396985359","1882","1364","1500","-39.618793","4.647968","-2.895428","0.01191048","0.0024375913","34359","34862","0.0","0.0","-0.50125474","1.3493696","0.0","0.0","1.3468763","0.046989635","0.036816664","0.0027804251","-0.72118473","-0.05632612","-0.045488928","-0.52911","-0.044692937","0.06477574","0.017788","-0.05632612","0.042561073","-0.52911","-0.044692937","0.06477574","0.017788","-0.05632612","-0.015878925","-0.52911","-0.044692937","0.06477574","0.017788","6520288660308","6520090142973","6520254617317"
"1589396985364","1882","1364","1500","-39.618793","4.647968","-2.895428","0.01191048","0.0024375913","34359","34862","0.0","0.0","-0.50125474","1.3493696","0.0","0.0","1.3468763","0.046989635","0.036816664","0.0027804251","-0.72118473","-0.05632612","-0.045488928","-0.52911","-0.044692937","0.06477574","0.017788","-0.05632612","0.042561073","-0.52911","-0.044692937","0.06477574","0.017788","-0.05632612","-0.015878925","-0.52911","-0.044692937","0.06477574","0.017788","6520288660308","6520090142973","6520254617317"
"1589396985371","1882","1364","1500","-39.618793","4.647968","-2.895428","0.01191048","0.0024375913","34359","34862","0.0","0.0","-0.50125474","1.3493696","0.0","0.0","1.3468763","0.046989635","0.036816664","0.0027804251","-0.72118473","-0.05632612","-0.045488928","-0.52911","-0.044692937","0.06477574","0.017788","-0.05632612","0.042561073","-0.52911","-0.044692937","0.06477574","0.017788","-0.05632612","-0.015878925","-0.52911","-0.044692937","0.06477574","0.017788","6520288660308","6520090142973","6520287511169"
"1589396985383","1882","1364","1500","-39.618793","4.647968","-2.895428","0.01191048","0.0024375913","34359","34862","0.0","0.0","-0.50125474","1.3493696","0.0","0.0","1.3468763","0.046989635","0.036816664","0.0027804251","-0.72118473","-0.05632612","-0.045488928","-0.52911","-0.044692937","0.06477574","0.017788","-0.05632612","0.042561073","-0.52911","-0.044692937","0.06477574","0.017788","-0.05632612","-0.015878925","-0.52911","-0.044692937","0.06477574","0.017788","6520288660308","6520090142973","6520287511169"
"1589396985396","1882","1364","1500","-39.618793","4.647968","-2.895428","0.0107194325","0.0021938323","34359","34862","0.0","0.0","-0.50125474","1.3493696","0.0","0.0","1.3506163","0.046989635","0.036816664","0.0043144524","-0.7219517","-0.05632468","-0.04545799","-0.52911","-0.04683878","0.06431557","0.020124687","-0.05632468","0.04259201","-0.52911","-0.04683878","0.06431557","0.020124687","-0.05632468","-0.015847987","-0.52911","-0.04683878","0.06431557","0.020124687","6520288660308","6520090142973","6520287511169"
"1589396985405","1882","1364","1500","-39.618793","4.647968","-2.895428","0.0107194325","0.0021938323","34359","34862","0.0","0.0","-0.4982819","1.3497533","0.0","0.0","1.3506163","0.046989635","0.036816664","0.0043144524","-0.7219517","-0.0563245","-0.04545428","-0.52911","-0.04711552","0.06432112","0.020106904","-0.0563245","0.04259572","-0.52911","-0.04711552","0.06432112","0.020106904","-0.0563245","-0.015844274","-0.52911","-0.04711552","0.06432112","0.020106904","6520288660308","6520221728642","6520320410725"
"1589396985420","1882","1364","1500","-39.618793","4.647968","-2.895428","0.0107194325","0.0021938323","34359","34862","0.0","0.0","-0.4982819","1.3497533","0.0","0.0","1.3506163","0.050154243","0.036816664","0.0043144524","-0.7219517","-0.0563245","-0.04545428","-0.52911","-0.04711552","0.06432112","0.020106904","-0.0563245","0.04259572","-0.52911","-0.04711552","0.06432112","0.020106904","-0.0563245","-0.015844274","-0.52911","-0.04711552","0.06432112","0.020106904","6520288660308","6520221728642","6520320410725"
"1589396985424","1882","1364","1500","-39.618793","4.647968","-2.895428","0.0107194325","0.0021938323","34359","34862","0.0","0.0","-0.4982819","1.3497533","0.0","0.0","1.3506163","0.050154243","0.036816664","0.0043144524","-0.7219517","-0.0563245","-0.04545428","-0.52911","-0.04711552","0.06432112","0.020106904","-0.0563245","0.04259572","-0.52911","-0.04711552","0.06432112","0.020106904","-0.0563245","-0.015844274","-0.52911","-0.04711552","0.06432112","0.020106904","6520288660308","6520221728642","6520320410725"
"1589396985431","1882","1364","1500","-39.618793","4.647968","-2.895428","0.0107194325","0.0021938323","34359","34862","0.0","0.0","-0.4982819","1.3497533","0.0","0.0","1.3506163","0.050154243","0.036816664","0.0043144524","-0.7219517","-0.0563245","-0.04545428","-0.52911","-0.04711552","0.06432112","0.020106904","-0.0563245","0.04259572","-0.52911","-0.04711552","0.06432112","0.020106904","-0.0563245","-0.015844274","-0.52911","-0.04711552","0.06432112","0.020106904","6520354450399","6520221728642","6520320410725"
"1589396985437","1882","1364","1500","-39.618793","4.647968","-2.895428","0.0107194325","0.0021938323","34359","34862","0.0","0.0","-0.4982819","1.3497533","0.0","0.0","1.355507","0.050154243","0.036816664","0.0058484804","-0.7226229","-0.0563245","-0.04545428","-0.52911","-0.04711552","0.06432112","0.020106904","-0.0563245","0.04259572","-0.52911","-0.04711552","0.06432112","0.020106904","-0.056322392","-0.01580174","-0.52911","-0.050110657","0.06384065","0.022647953","6520354450399","6520221728642","6520353301198"
"1589396985445","1882","1364","1500","-39.618793","4.647968","-2.895428","0.0096474895","0.001974449","34359","34862","0.0","0.0","-0.4982819","1.3497533","0.0","0.0","1.355507","0.050154243","0.036816664","0.0058484804","-0.7226229","-0.056322392","-0.045411743","-0.52911","-0.050110657","0.06384065","0.022647953","-0.056322392","0.042638257","-0.52911","-0.050110657","0.06384065","0.022647953","-0.056322392","-0.01580174","-0.52911","-0.050110657","0.06384065","0.022647953","6520354450399","6520221728642","6520353301198"
"1589396985457","1859","1329","1500","-39.618793","4.647968","-2.895428","0.0096474895","0.001974449","34359","34862","0.0","0.0","-0.4945419","1.3505204","0.0","0.0","1.355507","0.054086026","0.036912538","0.0058484804","-0.7226229","-0.05632222","-0.045408443","-0.52911","-0.050356638","0.06384621","0.022632265","-0.05632222","0.042641558","-0.52911","-0.050356638","0.06384621","0.022632265","-0.05632222","-0.01579844","-0.52911","-0.050356638","0.06384621","0.022632265","6520354450399","6520221728642","6520353301198"
"1589396985461","1859","1329","1500","-39.618793","4.647968","-2.895428","0.0096474895","0.001974449","34359","34862","0.0","0.0","-0.4945419","1.3505204","0.0","0.0","1.355507","0.054086026","0.036912538","0.0058484804","-0.7226229","-0.05632222","-0.045408443","-0.52911","-0.050356638","0.06384621","0.022632265","-0.05632222","0.042641558","-0.52911","-0.050356638","0.06384621","0.022632265","-0.05632222","-0.01579844","-0.52911","-0.050356638","0.06384621","0.022632265","6520354450399","6520221728642","6520353301198"
"1589396985472","1859","1329","1500","-39.618793","4.647968","-2.895428","0.0096474895","0.001974449","34359","34862","0.0","0.0","-0.4945419","1.3505204","0.0","0.0","1.355507","0.054086026","0.036912538","0.0058484804","-0.7226229","-0.05632222","-0.045408443","-0.52911","-0.050356638","0.06384621","0.022632265","-0.05632222","0.042641558","-0.52911","-0.050356638","0.06384621","0.022632265","-0.05632222","-0.01579844","-0.52911","-0.050356638","0.06384621","0.022632265","6520354450399","6520221728642","6520386191764"
"1589396985479","1859","1329","1500","-39.618793","4.647968","-2.895428","0.0096474895","0.001974449","34359","34863","0.0","0.0","-0.4945419","1.3505204","0.0","0.0","1.355507","0.054086026","0.036912538","0.0058484804","-0.7226229","-0.05632222","-0.045408443","-0.52911","-0.050356638","0.06384621","0.022632265","-0.05632222","0.042641558","-0.52911","-0.050356638","0.06384621","0.022632265","-0.05632222","-0.01579844","-0.52911","-0.050356638","0.06384621","0.022632265","6520354450399","6520221728642","6520386191764"
"1589396985492","1859","1329","1500","-39.6231","4.6468415","-2.8761246","0.01758392","0.040383562","34359","34863","0.0","208.0","-0.4945419","1.3505204","0.0","0.0","1.3609732","0.054086026","0.036912538","0.007190754","-0.72386926","-0.0563194","-0.045355607","-0.52911","-0.054109775","0.062753335","0.026065255","-0.0563194","0.042694394","-0.52911","-0.054109775","0.062753335","0.026065255","-0.0563194","-0.015745606","-0.52911","-0.054109775","0.062753335","0.026065255","6520420241761","6520221728642","6520386191764"
"1589396985500","1859","1329","1500","-39.6231","4.6468415","-2.8761246","0.01758392","0.040383562","34359","34863","0.0","208.0","-0.4945419","1.3505204","0.0","0.0","1.3609732","0.054086026","0.036912538","0.007190754","-0.72386926","-0.0563194","-0.045355607","-0.52911","-0.054109775","0.062753335","0.026065255","-0.0563194","0.042694394","-0.52911","-0.054109775","0.062753335","0.026065255","-0.0563194","-0.015745606","-0.52911","-0.054109775","0.062753335","0.026065255","6520420241761","6520221728642","6520386191764"
"1589396985508","1859","1329","1500","-39.6231","4.6468415","-2.8761246","0.01758392","0.040383562","34359","34863","0.0","208.0","-0.49271986","1.352822","0.0","0.0","1.3609732","0.055236794","0.036816664","0.007190754","-0.72386926","-0.056320056","-0.045367565","-0.52911","-0.05321817","0.062730126","0.026121138","-0.056320056","0.042682435","-0.52911","-0.05321817","0.062730126","0.026121138","-0.056320056","-0.015757563","-0.52911","-0.05321817","0.062730126","0.026121138","6520420241761","6520221728642","6520419092560"
"1589396985527","1859","1329","1500","-39.6231","4.6468415","-2.8761246","0.01758392","0.040383562","34359","34863","0.0","208.0","-0.49271986","1.352822","0.0","0.0","1.3609732","0.055236794","0.036816664","0.007190754","-0.72386926","-0.056320056","-0.045367565","-0.52911","-0.05321817","0.062730126","0.026121138","-0.056320056","0.042682435","-0.52911","-0.05321817","0.062730126","0.026121138","-0.056320056","-0.015757563","-0.52911","-0.05321817","0.062730126","0.026121138","6520420241761","6520353301198","6520419092560"
"1589396985536","1859","1329","1500","-39.6231","4.6468415","-2.8761246","0.01758392","0.040383562","34359","34864","0.0","231.0","-0.49271986","1.352822","0.0","0.0","1.3609732","0.055236794","0.036816664","0.007190754","-0.72386926","-0.056320056","-0.045367565","-0.52911","-0.05321817","0.062730126","0.026121138","-0.056320056","0.042682435","-0.52911","-0.05321817","0.062730126","0.026121138","-0.056320056","-0.015757563","-0.52911","-0.05321817","0.062730126","0.026121138","6520420241761","6520353301198","6520451992767"
"1589396985540","1859","1329","1500","-39.6231","4.6468415","-2.8761246","0.01758392","0.040383562","34359","34864","0.0","231.0","-0.49271986","1.352822","0.0","0.0","1.3670148","0.055236794","0.036816664","0.009012412","-0.7249239","-0.056320056","-0.045367565","-0.52911","-0.05321817","0.062730126","0.026121138","-0.056320056","0.042682435","-0.52911","-0.05321817","0.062730126","0.026121138","-0.056320056","-0.015757563","-0.52911","-0.05321817","0.062730126","0.026121138","6520420241761","6520353301198","6520451992767"
"1589396985553","1859","1329","1500","-39.627384","4.6456323","-2.8568213","0.024726707","0.07495176","34359","34864","0.0","231.0","-0.49319935","1.3558906","0.0","0.0","1.3670148","0.055236794","0.036816664","0.009012412","-0.7249239","-0.056319203","-0.045352105","-0.52911","-0.054142214","0.06198442","0.030339053","-0.056319203","0.042697895","-0.52911","-0.054142214","0.06198442","0.030339053","-0.056319203","-0.0157421","-0.52911","-0.054142214","0.06198442","0.030339053","6520420241761","6520353301198","6520451992767"
"1589396985561","1734","1283","1500","-39.627384","4.6456323","-2.8568213","0.024726707","0.07495176","34359","34864","0.0","231.0","-0.49319935","1.3558906","0.0","0.0","1.3670148","0.05399013","0.036720786","0.009012412","-0.7249239","-0.056319773","-0.045362413","-0.52911","-0.053373724","0.061961137","0.030386634","-0.056319773","0.042687587","-0.52911","-0.053373724","0.061961137","0.030386634","-0.056319773","-0.015752409","-0.52911","-0.053373724","0.061961137","0.030386634","6520420241761","6520353301198","6520451992767"
"1589396985569","1734","1283","1500","-39.627384","4.6456323","-2.8568213","0.024726707","0.07495176","34359","34864","0.0","231.0","-0.49319935","1.3558906","0.0","0.0","1.3670148","0.05399013","0.036720786","0.009012412","-0.7249239","-0.056319773","-0.045362413","-0.52911","-0.053373724","0.061961137","0.030386634","-0.056319773","0.042687587","-0.52911","-0.053373724","0.061961137","0.030386634","-0.056319773","-0.015752409","-0.52911","-0.053373724","0.061961137","0.030386634","6520486048499","6520353301198","6520484898926"
"1589396985577","1734","1283","1500","-39.627384","4.6456323","-2.8568213","0.024726707","0.07495176","34360","34865","0.0","231.0","-0.49319935","1.3558906","0.0","0.0","1.3670148","0.05399013","0.036720786","0.009012412","-0.7249239","-0.056319773","-0.045362413","-0.52911","-0.053373724","0.061961137","0.030386634","-0.056319773","0.042687587","-0.52911","-0.053373724","0.061961137","0.030386634","-0.056319773","-0.015752409","-0.52911","-0.053373724","0.061961137","0.030386634","6520486048499","6520353301198","6520484898926"
"1589396985592","1734","1283","1500","-39.627384","4.6456323","-2.8568213","0.024726707","0.07495176","34360","34865","183.0","294.0","-0.49319935","1.3558906","0.0","0.0","1.3730563","0.05399013","0.036720786","0.010162933","-0.7274167","-0.056319773","-0.045362413","-0.52911","-0.053373724","0.061961137","0.030386634","-0.056319773","0.042687587","-0.52911","-0.053373724","0.061961137","0.030386634","-0.056320682","-0.015769161","-0.52911","-0.051973946","0.061460935","0.03288844","6520486048499","6520353301198","6520484898926"
"1589396985597","1734","1283","1500","-39.635925","4.6431317","-2.8568213","0.040056396","0.06745659","34360","34865","183.0","294.0","-0.49319935","1.3558906","0.0","0.0","1.3730563","0.05399013","0.036720786","0.010162933","-0.7274167","-0.056320682","-0.04537916","-0.52911","-0.051973946","0.061460935","0.03288844","-0.056320682","0.04267084","-0.52911","-0.051973946","0.061460935","0.03288844","-0.056320682","-0.015769161","-0.52911","-0.051973946","0.061460935","0.03288844","6520486048499","6520353301198","6520517795692"
"1589396985601","1734","1283","1500","-39.635925","4.6431317","-2.8568213","0.040056396","0.06745659","34360","34865","183.0","294.0","-0.49224037","1.3585758","0.0","0.0","1.3730563","0.05399013","0.036720786","0.010162933","-0.7274167","-0.056320682","-0.04537916","-0.52911","-0.051973946","0.061460935","0.03288844","-0.056320682","0.04267084","-0.52911","-0.051973946","0.061460935","0.03288844","-0.056320682","-0.015769161","-0.52911","-0.051973946","0.061460935","0.03288844","6520486048499","6520353301198","6520517795692"
"1589396985608","1734","1283","1500","-39.635925","4.6431317","-2.8568213","0.040056396","0.06745659","34360","34865","183.0","294.0","-0.49224037","1.3585758","0.0","0.0","1.3730563","0.056867044","0.036720786","0.010162933","-0.7274167","-0.05631972","-0.045361433","-0.52911","-0.053295575","0.06150426","0.03280725","-0.05631972","0.042688567","-0.52911","-0.053295575","0.06150426","0.03280725","-0.05631972","-0.01575143","-0.52911","-0.053295575","0.06150426","0.03280725","6520486048499","6520353301198","6520517795692"
"1589396985620","1734","1283","1500","-39.635925","4.6431317","-2.8568213","0.040056396","0.06745659","34360","34865","183.0","294.0","-0.49224037","1.3585758","0.0","0.0","1.3730563","0.056867044","0.036720786","0.010162933","-0.7274167","-0.05631972","-0.045361433","-0.52911","-0.053295575","0.06150426","0.03280725","-0.05631972","0.042688567","-0.52911","-0.053295575","0.06150426","0.03280725","-0.05631972","-0.01575143","-0.52911","-0.053295575","0.06150426","0.03280725","6520486048499","6520353301198","6520517795692"
"1589396985625","1734","1283","1500","-39.635925","4.6431317","-2.8568213","0.040056396","0.06745659","34362","34867","183.0","294.0","-0.49224037","1.3585758","0.0","0.0","1.3730563","0.056867044","0.036720786","0.010162933","-0.7274167","-0.05631972","-0.045361433","-0.52911","-0.053295575","0.06150426","0.03280725","-0.05631972","0.042688567","-0.52911","-0.053295575","0.06150426","0.03280725","-0.05631972","-0.01575143","-0.52911","-0.053295575","0.06150426","0.03280725","6520486048499","6520353301198","6520517795692"
"1589396985635","1734","1283","1500","-39.635925","4.6431317","-2.8568213","0.040056396","0.06745659","34362","34867","280.0","783.0","-0.49224037","1.3585758","0.0","0.0","1.3800567","0.056867044","0.036720786","0.010162933","-0.7274167","-0.05631972","-0.045361433","-0.52911","-0.053295575","0.06150426","0.03280725","-0.05631972","0.042688567","-0.52911","-0.053295575","0.06150426","0.03280725","-0.05631972","-0.01575143","-0.52911","-0.053295575","0.06150426","0.03280725","6520551841318","6520353301198","6520517795692"
"1589396985650","1734","1283","1500","-39.635925","4.6431317","-2.8568213","0.040056396","0.06745659","34362","34867","280.0","783.0","-0.49224037","1.3585758","0.0","0.0","1.3800567","0.056867044","0.036720786","0.009491796","-0.7308683","-0.05631754","-0.04532278","-0.52911","-0.056202788","0.061277527","0.03232183","-0.05631754","0.04272722","-0.52911","-0.056202788","0.061277527","0.03232183","-0.05631754","-0.015712777","-0.52911","-0.056202788","0.061277527","0.03232183","6520551841318","6520353301198","6520550691869"
"1589396985659","1496","1232","1500","-39.65301","4.63813","-2.8568213","0.071655475","0.06071093","34362","34867","280.0","783.0","-0.49013063","1.3616445","0.0","0.0","1.3800567","0.0618537","0.036720786","0.009491796","-0.7308683","-0.056317013","-0.04531371","-0.52911","-0.05687902","0.061299324","0.03228042","-0.056317013","0.042736292","-0.52911","-0.05687902","0.061299324","0.03228042","-0.056317013","-0.015703706","-0.52911","-0.05687902","0.061299324","0.03228042","6520551841318","6520353301198","6520550691869"
"1589396985664","1496","1232","1500","-39.65301","4.63813","-2.8568213","0.071655475","0.06071093","34362","34867","280.0","783.0","-0.49013063","1.3616445","0.0","0.0","1.3800567","0.0618537","0.036720786","0.009491796","-0.7308683","-0.056317013","-0.04531371","-0.52911","-0.05687902","0.061299324","0.03228042","-0.056317013","0.042736292","-0.52911","-0.05687902","0.061299324","0.03228042","-0.056317013","-0.015703706","-0.52911","-0.05687902","0.061299324","0.03228042","6520551841318","6520353301198","6520550691869"
"1589396985676","1496","1232","1500","-39.65301","4.63813","-2.8568213","0.071655475","0.06071093","34364","34869","280.0","783.0","-0.49013063","1.3616445","0.0","0.0","1.3800567","0.0618537","0.036720786","0.009491796","-0.7308683","-0.056317013","-0.04531371","-0.52911","-0.05687902","0.061299324","0.03228042","-0.056317013","0.042736292","-0.52911","-0.05687902","0.061299324","0.03228042","-0.056317013","-0.015703706","-0.52911","-0.05687902","0.061299324","0.03228042","6520551841318","6520484898926","6520583590898"
"1589396985687","1496","1232","1500","-39.65301","4.63813","-2.8568213","0.071655475","0.06071093","34364","34869","1104.0","1506.0","-0.49013063","1.3616445","0.0","0.0","1.3866737","0.0618537","0.036720786","0.009491796","-0.7308683","-0.056317013","-0.04531371","-0.52911","-0.05687902","0.061299324","0.03228042","-0.056317013","0.042736292","-0.52911","-0.05687902","0.061299324","0.03228042","-0.056317013","-0.015703706","-0.52911","-0.05687902","0.061299324","0.03228042","6520551841318","6520484898926","6520583590898"
"1589396985692","1496","1232","1500","-39.65301","4.63813","-2.8568213","0.071655475","0.06071093","34364","34869","1104.0","1506.0","-0.49013063","1.3616445","0.0","0.0","1.3866737","0.0618537","0.036720786","0.008724782","-0.7347992","-0.056317013","-0.04531371","-0.52911","-0.05687902","0.061299324","0.03228042","-0.056317013","0.042736292","-0.52911","-0.05687902","0.061299324","0.03228042","-0.056317013","-0.015703706","-0.52911","-0.05687902","0.061299324","0.03228042","6520617618079","6520484898926","6520583590898"
"1589396985696","1496","1232","1500","-39.65301","4.63813","-2.8568213","0.071655475","0.06071093","34364","34869","1104.0","1506.0","-0.49013063","1.3616445","0.0","0.0","1.3866737","0.0618537","0.036720786","0.008724782","-0.7347992","-0.056312926","-0.045246728","-0.52911","-0.061959423","0.06161864","0.030629467","-0.056312926","0.042803273","-0.52911","-0.061959423","0.06161864","0.030629467","-0.056312926","-0.015636725","-0.52911","-0.061959423","0.06161864","0.030629467","6520617618079","6520484898926","6520583590898"
"1589396985703","1496","1232","1500","-39.670097","4.633129","-2.8568213","0.100094646","0.054639835","34364","34869","1104.0","1506.0","-0.48706192","1.3650968","0.0","0.0","1.3866737","0.0618537","0.036720786","0.008724782","-0.7347992","-0.056315154","-0.045282587","-0.52911","-0.059284847","0.061536685","0.030793991","-0.056315154","0.042767413","-0.52911","-0.059284847","0.061536685","0.030793991","-0.056315154","-0.015672583","-0.52911","-0.059284847","0.061536685","0.030793991","6520617618079","6520484898926","6520616469374"
"1589396985710","1496","1232","1500","-39.670097","4.633129","-2.8568213","0.100094646","0.054639835","34364","34869","1104.0","1506.0","-0.48706192","1.3650968","0.0","0.0","1.3866737","0.0584973","0.03633728","0.008724782","-0.7347992","-0.056315154","-0.045282587","-0.52911","-0.059284847","0.061536685","0.030793991","-0.056315154","0.042767413","-0.52911","-0.059284847","0.061536685","0.030793991","-0.056315154","-0.015672583","-0.52911","-0.059284847","0.061536685","0.030793991","6520617618079","6520484898926","6520616469374"
"1589396985723","1496","1232","1500","-39.670097","4.633129","-2.8568213","0.100094646","0.054639835","34364","34869","1104.0","1506.0","-0.48706192","1.3650968","0.0","0.0","1.3866737","0.0584973","0.03633728","0.008724782","-0.7347992","-0.056315154","-0.045282587","-0.52911","-0.059284847","0.061536685","0.030793991","-0.056315154","0.042767413","-0.52911","-0.059284847","0.061536685","0.030793991","-0.056315154","-0.015672583","-0.52911","-0.059284847","0.061536685","0.030793991","6520617618079","6520484898926","6520616469374"
"1589396985726","1496","1232","1500","-39.670097","4.633129","-2.8568213","0.100094646","0.054639835","34367","34873","1104.0","1506.0","-0.48706192","1.3650968","0.0","0.0","1.3866737","0.0584973","0.03633728","0.008724782","-0.7347992","-0.056315154","-0.045282587","-0.52911","-0.059284847","0.061536685","0.030793991","-0.056315154","0.042767413","-0.52911","-0.059284847","0.061536685","0.030793991","-0.056315154","-0.015672583","-0.52911","-0.059284847","0.061536685","0.030793991","6520617618079","6520484898926","6520616469374"
"1589396985734","1496","1232","1500","-39.670097","4.633129","-2.8568213","0.100094646","0.054639835","34367","34873","1865.0","2382.0","-0.48706192","1.3650968","0.0","0.0","1.3866737","0.0584973","0.03633728","0.008724782","-0.7347992","-0.056315154","-0.045282587","-0.52911","-0.059284847","0.061536685","0.030793991","-0.056315154","0.042767413","-0.52911","-0.059284847","0.061536685","0.030793991","-0.056315154","-0.015672583","-0.52911","-0.059284847","0.061536685","0.030793991","6520617618079","6520484898926","6520649361366"
"1589396985741","1496","1232","1500","-39.670097","4.633129","-2.8568213","0.100094646","0.054639835","34367","34873","1865.0","2382.0","-0.48706192","1.3650968","0.0","0.0","1.3910849","0.0584973","0.03633728","0.007766015","-0.7387302","-0.056315154","-0.045282587","-0.52911","-0.059284847","0.061536685","0.030793991","-0.056315154","0.042767413","-0.52911","-0.059284847","0.061536685","0.030793991","-0.056315154","-0.015672583","-0.52911","-0.059284847","0.061536685","0.030793991","6520617618079","6520484898926","6520649361366"
"1589396985755","1496","1232","1500","-39.69991","4.6240883","-2.837518","0.15239343","0.08778241","34367","34873","1865.0","2382.0","-0.47910246","1.366727","0.0","0.0","1.3910849","0.0584973","0.03633728","0.007766015","-0.7387302","-0.05631782","-0.045327675","-0.52911","-0.05596882","0.06203151","0.030792419","-0.05631782","0.042722326","-0.52911","-0.05596882","0.06203151","0.030792419","-0.05631768","-0.015715199","-0.52911","-0.056153268","0.06203718","0.03078099","6520683395212","6520484898926","6520649361366"
"1589396985758","1364","1181","1500","-39.69991","4.6240883","-2.837518","0.15239343","0.08778241","34367","34873","1865.0","2382.0","-0.47910246","1.366727","0.0","0.0","1.3910849","0.05571628","0.03576202","0.007766015","-0.7387302","-0.05631768","-0.0453252","-0.52911","-0.056153268","0.06203718","0.03078099","-0.05631768","0.0427248","-0.52911","-0.056153268","0.06203718","0.03078099","-0.05631768","-0.015715199","-0.52911","-0.056153268","0.06203718","0.03078099","6520683395212","6520484898926","6520649361366"
"1589396985763","1364","1181","1500","-39.69991","4.6240883","-2.837518","0.15239343","0.08778241","34367","34873","1865.0","2382.0","-0.47910246","1.366727","0.0","0.0","1.3910849","0.05571628","0.03576202","0.007766015","-0.7387302","-0.05631768","-0.0453252","-0.52911","-0.056153268","0.06203718","0.03078099","-0.05631768","0.0427248","-0.52911","-0.056153268","0.06203718","0.03078099","-0.05631768","-0.015715199","-0.52911","-0.056153268","0.06203718","0.03078099","6520683395212","6520484898926","6520649361366"
"1589396985769","1364","1181","1500","-39.69991","4.6240883","-2.837518","0.15239343","0.08778241","34367","34873","1865.0","2382.0","-0.47910246","1.366727","0.0","0.0","1.3910849","0.05571628","0.03576202","0.007766015","-0.7387302","-0.05631768","-0.0453252","-0.52911","-0.056153268","0.06203718","0.03078099","-0.05631768","0.0427248","-0.52911","-0.056153268","0.06203718","0.03078099","-0.05631768","-0.015715199","-0.52911","-0.056153268","0.06203718","0.03078099","6520683395212","6520484898926","6520682246321"
"1589396985777","1364","1181","1500","-39.69991","4.6240883","-2.837518","0.15239343","0.08778241","34370","34877","1865.0","2382.0","-0.47910246","1.366727","0.0","0.0","1.3910849","0.05571628","0.03576202","0.007766015","-0.7387302","-0.056319784","-0.045362566","-0.52911","-0.05340755","0.062951736","0.030776246","-0.056319784","0.042687435","-0.52911","-0.05340755","0.062951736","0.030776246","-0.056319784","-0.015752563","-0.52911","-0.05340755","0.062951736","0.030776246","6520683395212","6520484898926","6520682246321"
"1589396985792","1364","1181","1500","-39.729546","4.6144743","-2.8182147","0.19946234","0.11761073","34370","34877","2387.0","2916.0","-0.47910246","1.366727","0.0","0.0","1.3923316","0.05571628","0.03576202","0.0061361105","-0.7422776","-0.056319784","-0.045362566","-0.52911","-0.05348689","0.062308546","0.029708695","-0.056319784","0.042687435","-0.52911","-0.05348689","0.062308546","0.029708695","-0.056319784","-0.015752563","-0.52911","-0.05348689","0.062308546","0.029708695","6520683395212","6520484898926","6520682246321"
"1589396985797","1364","1181","1500","-39.729546","4.6144743","-2.8182147","0.19946234","0.11761073","34370","34877","2387.0","2916.0","-0.47910246","1.366727","0.0","0.0","1.3923316","0.05571628","0.03576202","0.0061361105","-0.7422776","-0.056319784","-0.045362566","-0.52911","-0.05348689","0.062308546","0.029708695","-0.056319784","0.042687435","-0.52911","-0.05348689","0.062308546","0.029708695","-0.056319784","-0.015752563","-0.52911","-0.05348689","0.062308546","0.029708695","6520683395212","6520616469374","6520682246321"
"1589396985802","1364","1181","1500","-39.729546","4.6144743","-2.8182147","0.19946234","0.11761073","34370","34877","2387.0","2916.0","-0.47910246","1.366727","0.0","0.0","1.3923316","0.05571628","0.03576202","0.0061361105","-0.7422776","-0.056319784","-0.045362566","-0.52911","-0.05348689","0.062308546","0.029708695","-0.05631983","0.042686608","-0.52911","-0.0534254","0.06230672","0.029712517","-0.05631983","-0.015753388","-0.52911","-0.0534254","0.06230672","0.029712517","6520683395212","6520616469374","6520682246321"
"1589396985812","1364","1181","1500","-39.729546","4.6144743","-2.8182147","0.19946234","0.11761073","34370","34877","2387.0","2916.0","-0.4714307","1.3694122","0.0","0.0","1.3923316","0.052743465","0.034707375","0.0061361105","-0.7422776","-0.05631983","-0.045363393","-0.52911","-0.0534254","0.06230672","0.029712517","-0.05631983","0.042686608","-0.52911","-0.0534254","0.06230672","0.029712517","-0.05631983","-0.015753388","-0.52911","-0.0534254","0.06230672","0.029712517","6520683395212","6520616469374","6520715143955"
"1589396985819","1364","1181","1500","-39.729546","4.6144743","-2.8182147","0.19946234","0.11761073","34375","34881","2387.0","2916.0","-0.4714307","1.3694122","0.0","0.0","1.3923316","0.052743465","0.034707375","0.0061361105","-0.7422776","-0.05631983","-0.045363393","-0.52911","-0.0534254","0.06230672","0.029712517","-0.05631983","0.042686608","-0.52911","-0.0534254","0.06230672","0.029712517","-0.05631983","-0.015753388","-0.52911","-0.0534254","0.06230672","0.029712517","6520683395212","6520616469374","6520715143955"
"1589396985831","1364","1181","1500","-39.767643","4.602113","-2.837518","0.25962672","0.0672431","34375","34881","3129.0","3285.0","-0.4714307","1.3694122","0.0","0.0","1.3917562","0.052743465","0.034707375","0.0061361105","-0.7422776","-0.056321956","-0.04540334","-0.52911","-0.050661534","0.063426346","0.025785418","-0.056321956","0.04264666","-0.52911","-0.050661534","0.063426346","0.025785418","-0.056321956","-0.015793337","-0.52911","-0.050661534","0.063426346","0.025785418","6520749192960","6520616469374","6520715143955"
"1589396985838","1364","1181","1500","-39.767643","4.602113","-2.837518","0.25962672","0.0672431","34375","34881","3129.0","3285.0","-0.4714307","1.3694122","0.0","0.0","1.3917562","0.052743465","0.034707375","0.0043144524","-0.74572915","-0.056321956","-0.04540334","-0.52911","-0.050667126","0.06385422","0.02564352","-0.056321956","0.04264666","-0.52911","-0.050667126","0.06385422","0.02564352","-0.056321956","-0.015793337","-0.52911","-0.050667126","0.06385422","0.02564352","6520749192960","6520616469374","6520748043263"
"1589396985846","1364","1181","1500","-39.767643","4.602113","-2.837518","0.25962672","0.0672431","34375","34881","3129.0","3285.0","-0.4714307","1.3694122","0.0","0.0","1.3917562","0.052743465","0.034707375","0.0043144524","-0.74572915","-0.056321956","-0.04540334","-0.52911","-0.050667126","0.06385422","0.02564352","-0.056321956","0.04264666","-0.52911","-0.050667126","0.06385422","0.02564352","-0.056321956","-0.015793337","-0.52911","-0.050667126","0.06385422","0.02564352","6520749192960","6520616469374","6520748043263"
"1589396985856","1364","1181","1500","-39.767643","4.602113","-2.837518","0.25962672","0.0672431","34375","34881","3129.0","3285.0","-0.45838866","1.3707547","0.0","0.0","1.3917562","0.050346036","0.034323867","0.0043144524","-0.74572915","-0.05632183","-0.045400865","-0.52911","-0.0508516","0.063858934","0.025631752","-0.05632183","0.042649135","-0.52911","-0.0508516","0.063858934","0.025631752","-0.05632183","-0.015790863","-0.52911","-0.0508516","0.063858934","0.025631752","6520749192960","6520616469374","6520748043263"
"1589396985860","1295","1141","1500","-39.767643","4.602113","-2.837518","0.25962672","0.0672431","34375","34881","3129.0","3285.0","-0.45838866","1.3707547","0.0","0.0","1.3917562","0.050346036","0.034323867","0.0043144524","-0.74572915","-0.05632183","-0.045400865","-0.52911","-0.0508516","0.063858934","0.025631752","-0.05632183","0.042649135","-0.52911","-0.0508516","0.063858934","0.025631752","-0.05632183","-0.015790863","-0.52911","-0.0508516","0.063858934","0.025631752","6520749192960","6520616469374","6520748043263"
"1589396985864","1295","1141","1500","-39.767643","4.602113","-2.837518","0.25962672","0.0672431","34375","34881","3129.0","3285.0","-0.45838866","1.3707547","0.0","0.0","1.3917562","0.050346036","0.034323867","0.0043144524","-0.74572915","-0.05632183","-0.045400865","-0.52911","-0.0508516","0.063858934","0.025631752","-0.05632183","0.042649135","-0.52911","-0.0508516","0.063858934","0.025631752","-0.05632183","-0.015790863","-0.52911","-0.0508516","0.063858934","0.025631752","6520749192960","6520616469374","6520748043263"
"1589396985874","1295","1141","1500","-39.767643","4.602113","-2.837518","0.25962672","0.0672431","34379","34886","3129.0","3285.0","-0.45838866","1.3707547","0.0","0.0","1.3917562","0.050346036","0.034323867","0.0043144524","-0.74572915","-0.05632183","-0.045400865","-0.52911","-0.0508516","0.063858934","0.025631752","-0.05632183","0.042649135","-0.52911","-0.0508516","0.063858934","0.025631752","-0.05632183","-0.015790863","-0.52911","-0.0508516","0.063858934","0.025631752","6520749192960","6520616469374","6520748043263"
"1589396985884","1295","1141","1500","-39.805744","4.5897517","-2.8182147","0.31377465","0.09912535","34379","34886","3830.0","3818.0","-0.45838866","1.3707547","0.0","0.0","1.39003","0.050346036","0.034323867","0.0043144524","-0.74572915","-0.056323465","-0.045433085","-0.52911","-0.048610054","0.06460779","0.023933074","-0.056323465","0.042616915","-0.52911","-0.048610054","0.06460779","0.023933074","-0.056323465","-0.015823083","-0.52911","-0.048610054","0.06460779","0.023933074","6520749192960","6520616469374","6520780941424"
"1589396985890","1295","1141","1500","-39.805744","4.5897517","-2.8182147","0.31377465","0.09912535","34379","34886","3830.0","3818.0","-0.45838866","1.3707547","0.0","0.0","1.39003","0.050346036","0.034323867","0.0023010415","-0.74793434","-0.056323465","-0.045433085","-0.52911","-0.048694294","0.061687298","0.022853795","-0.056323465","0.042616915","-0.52911","-0.048694294","0.061687298","0.022853795","-0.056323465","-0.015823083","-0.52911","-0.048694294","0.061687298","0.022853795","6520814995141","6520616469374","6520780941424"
"1589396985893","1295","1141","1500","-39.805744","4.5897517","-2.8182147","0.31377465","0.09912535","34379","34886","3830.0","3818.0","-0.45838866","1.3707547","0.0","0.0","1.39003","0.050346036","0.034323867","0.0023010415","-0.74793434","-0.056323465","-0.045433085","-0.52911","-0.048694294","0.061687298","0.022853795","-0.056323465","0.042616915","-0.52911","-0.048694294","0.061687298","0.022853795","-0.056323465","-0.015823083","-0.52911","-0.048694294","0.061687298","0.022853795","6520814995141","6520616469374","6520780941424"
"1589396985901","1295","1141","1500","-39.805744","4.5897517","-2.8182147","0.31377465","0.09912535","34379","34886","3830.0","3818.0","-0.43575692","1.3708506","0.0","0.0","1.39003","0.050346036","0.034323867","0.0023010415","-0.74793434","-0.056323465","-0.045433085","-0.52911","-0.048694294","0.061687298","0.022853795","-0.056323465","0.042616915","-0.52911","-0.048694294","0.061687298","0.022853795","-0.056323465","-0.015823083","-0.52911","-0.048694294","0.061687298","0.022853795","6520814995141","6520616469374","6520780941424"
"1589396985906","1295","1141","1500","-39.805744","4.5897517","-2.8182147","0.31377465","0.09912535","34379","34886","3830.0","3818.0","-0.43575692","1.3708506","0.0","0.0","1.39003","0.05063373","0.033556852","0.0023010415","-0.74793434","-0.056322888","-0.045421537","-0.52911","-0.049555097","0.061706908","0.022800736","-0.056322888","0.042628463","-0.52911","-0.049555097","0.061706908","0.022800736","-0.056322888","-0.015811535","-0.52911","-0.049555097","0.061706908","0.022800736","6520814995141","6520616469374","6520780941424"
"1589396985922","1295","1141","1500","-39.805744","4.5897517","-2.8182147","0.31377465","0.09912535","34379","34886","3830.0","3818.0","-0.43575692","1.3708506","0.0","0.0","1.39003","0.05063373","0.033556852","0.0023010415","-0.74793434","-0.056322888","-0.045421537","-0.52911","-0.049555097","0.061706908","0.022800736","-0.056322888","0.042628463","-0.52911","-0.049555097","0.061706908","0.022800736","-0.056322888","-0.015811535","-0.52911","-0.049555097","0.061706908","0.022800736","6520814995141","6520616469374","6520780941424"
"1589396985925","1295","1141","1500","-39.805744","4.5897517","-2.8182147","0.31377465","0.09912535","34385","34892","3830.0","3818.0","-0.43575692","1.3708506","0.0","0.0","1.39003","0.05063373","0.033556852","0.0023010415","-0.74793434","-0.056322888","-0.045421537","-0.52911","-0.049555097","0.061706908","0.022800736","-0.056322888","0.042628463","-0.52911","-0.049555097","0.061706908","0.022800736","-0.056322888","-0.015811535","-0.52911","-0.049555097","0.061706908","0.022800736","6520814995141","6520616469374","6520780941424"
"1589396985930","1295","1141","1500","-39.805744","4.5897517","-2.8182147","0.31377465","0.09912535","34385","34892","4091.0","4247.0","-0.43575692","1.3708506","0.0","0.0","1.39003","0.05063373","0.033556852","0.0023010415","-0.74793434","-0.056322888","-0.045421537","-0.52911","-0.049555097","0.061706908","0.022800736","-0.056322888","0.042628463","-0.52911","-0.049555097","0.061706908","0.022800736","-0.056322888","-0.015811535","-0.52911","-0.049555097","0.061706908","0.022800736","6520814995141","6520616469374","6520780941424"
"1589396985942","1295","1141","1500","-39.856384","4.57278","-2.8182147","0.38921133","0.08921281","34385","34892","4091.0","4247.0","-0.43575692","1.3708506","0.0","0.0","1.3887835","0.05063373","0.033556852","6.7113707E-4","-0.74908483","-0.056322694","-0.04541767","-0.52911","-0.050051603","0.061746147","0.019486556","-0.056322694","0.04263233","-0.52911","-0.050051603","0.061746147","0.019486556","-0.056322694","-0.01580767","-0.52911","-0.050051603","0.061746147","0.019486556","6520814995141","6520616469374","6520846744659"
"1589396985958","1295","1141","1500","-39.856384","4.57278","-2.8182147","0.38921133","0.08921281","34385","34892","4091.0","4247.0","-0.4122621","1.3712342","0.0","0.0","1.3887835","0.05025014","0.032598086","6.7113707E-4","-0.74908483","-0.05632284","-0.045420557","-0.52911","-0.049836382","0.061741956","0.01949983","-0.05632284","0.042629443","-0.52911","-0.049836382","0.061741956","0.01949983","-0.05632284","-0.015810557","-0.52911","-0.049836382","0.061741956","0.01949983","6520880801414","6520748043263","6520846744659"
