"timeStamp","surroundings_IR_Left","surroundings_IR_Right","surroundings_UltraSonic","pose2D_x","pose2D_y","pose2D_theta","pose2D_linearVelocity","pose2D_angularVelocity","baseTick_left","baseTick_right","wheelSpeed_SpeedLeft","wheelSpeed_SpeedRight","headPoseWorld_roll","headPoseWorld_pitch","headPoseWorld_yaw","headPoseJoint_roll","headPoseJoint_pitch","headPoseJoint_yaw","baseImu_roll","baseImu_pitch","baseImu_yaw","fishEyeTf_tx","fishEyeTf_ty","fishEyeTf_tz","fishEyeTf_roll","fishEyeTf_pitch","fishEyeTf_yaw","colorTf_tx","colorTf_ty","colorTf_tz","colorTf_roll","colorTf_pitch","colorTf_yaw","depthTf_tx","depthTf_ty","depthTf_tz","depthTf_roll","depthTf_pitch","depthTf_yaw","fishEyeIndex","colorIndex","depthIndex"
"1589396926986","1905","1421","1500","-33.686943","10.079084","-2.7216983","0.012042513","0.038705762","23597","24109","0.0","190.0","-0.5086388","1.348123","0.0","0.0","1.3279846","0.078923404","0.03566614","3.835069E-4","-1.5648999","-0.056295376","-0.04500492","-0.52911","-0.08079086","0.0615059","0.021975717","-0.056295376","0.04304508","-0.52911","-0.08079086","0.0615059","0.021975717","-0.056295376","-0.015394919","-0.52911","-0.08079086","0.0615059","0.021975717","0","6392427745375","6392427745375"
"1589396926992","1905","1421","1500","-33.686943","10.079084","-2.7216983","0.012042513","0.038705762","23597","24109","0.0","190.0","-0.5086388","1.348123","0.0","0.0","1.3279846","0.078923404","0.03566614","3.835069E-4","-1.5648999","-0.056295376","-0.04500492","-0.52911","-0.08079086","0.0615059","0.021975717","-0.056295376","0.04304508","-0.52911","-0.08079086","0.0615059","0.021975717","-0.056295376","-0.015394919","-0.52911","-0.08079086","0.0615059","0.021975717","0","6392427745375","6392427745375"
"1589396926996","1905","1421","1500","-33.686943","10.079084","-2.7216983","0.012042513","0.038705762","23597","24109","0.0","190.0","-0.50691265","1.3483148","0.0","0.0","1.3279846","0.078923404","0.03566614","3.835069E-4","-1.5648999","-0.056295376","-0.04500492","-0.52911","-0.08079086","0.0615059","0.021975717","-0.056295376","0.04304508","-0.52911","-0.08079086","0.0615059","0.021975717","-0.056295376","-0.015394919","-0.52911","-0.08079086","0.0615059","0.021975717","0","6392427745375","6392427745375"
"1589396927000","1905","1421","1500","-33.686943","10.079084","-2.7216983","0.012042513","0.038705762","23597","24109","0.0","190.0","-0.50691265","1.3483148","0.0","0.0","1.3279846","0.078923404","0.035570264","3.835069E-4","-1.5648999","-0.056295376","-0.04500492","-0.52911","-0.08079086","0.0615059","0.021975717","-0.056295376","0.04304508","-0.52911","-0.08079086","0.0615059","0.021975717","-0.056295376","-0.015394919","-0.52911","-0.08079086","0.0615059","0.021975717","0","6392427745375","6392427745375"
"1589396927023","1905","1421","1500","-33.686943","10.079084","-2.7216983","0.012042513","0.038705762","23597","24109","0.0","190.0","-0.50691265","1.3483148","0.0","0.0","1.3279846","0.07681367","0.035570264","3.835069E-4","-1.5648999","-0.05629871","-0.04504653","-0.52911","-0.077681385","0.061437458","0.022166567","-0.05629871","0.04300347","-0.52911","-0.077681385","0.061437458","0.022166567","-0.05629871","-0.015436528","-0.52911","-0.077681385","0.061437458","0.022166567","0","6392427745375","6392427745375"
"1589396927028","1905","1421","1500","-33.69507","10.075456","-2.7216983","0.02864062","0.034835186","23597","24109","0.0","190.0","-0.50691265","1.3483148","0.0","0.0","1.3279846","0.07681367","0.035570264","3.835069E-4","-1.5648999","-0.056300946","-0.045075413","-0.52911","-0.07543665","0.061197408","0.02371611","-0.056300946","0.042974588","-0.52911","-0.07543665","0.061197408","0.02371611","-0.056300946","-0.015465412","-0.52911","-0.07543665","0.061197408","0.02371611","0","6392427745375","6392427745375"
"1589396927040","1905","1421","1500","-33.69507","10.075456","-2.7216983","0.02864062","0.034835186","23597","24109","0.0","190.0","-0.50691265","1.3483148","0.0","0.0","1.3286558","0.07681367","0.035570264","6.7113707E-4","-1.5644206","-0.056300946","-0.045075413","-0.52911","-0.07547892","0.06109321","0.0230284","-0.056300946","0.042974588","-0.52911","-0.07547892","0.06109321","0.0230284","-0.056300946","-0.015465412","-0.52911","-0.07547892","0.06109321","0.0230284","0","6392427745375","6462644110615"
"1589396927050","1905","1421","1500","-33.69507","10.075456","-2.7216983","0.02864062","0.034835186","23597","24109","0.0","190.0","-0.50585777","1.348986","0.0","0.0","1.3286558","0.07681367","0.035570264","6.7113707E-4","-1.5644206","-0.056300946","-0.045075413","-0.52911","-0.07547892","0.06109321","0.0230284","-0.056300946","0.042974588","-0.52911","-0.07547892","0.06109321","0.0230284","-0.056300946","-0.015465412","-0.52911","-0.07547892","0.06109321","0.0230284","0","6392427745375","6462644110615"
"1589396927054","1905","1421","1500","-33.69507","10.075456","-2.7216983","0.02864062","0.034835186","23597","24109","0.0","190.0","-0.50585777","1.348986","0.0","0.0","1.3286558","0.07336137","0.035570264","6.7113707E-4","-1.5644206","-0.0563013","-0.045080043","-0.52911","-0.07513323","0.061085265","0.023049487","-0.0563013","0.042969957","-0.52911","-0.07513323","0.061085265","0.023049487","-0.0563013","-0.01547004","-0.52911","-0.07513323","0.061085265","0.023049487","0","6392427745375","6462644110615"
"1589396927057","1898","1415","1500","-33.69507","10.075456","-2.7216983","0.02864062","0.034835186","23597","24109","0.0","190.0","-0.50585777","1.348986","0.0","0.0","1.3286558","0.07336137","0.035570264","6.7113707E-4","-1.5644206","-0.0563013","-0.045080043","-0.52911","-0.07513323","0.061085265","0.023049487","-0.0563013","0.042969957","-0.52911","-0.07513323","0.061085265","0.023049487","-0.0563013","-0.01547004","-0.52911","-0.07513323","0.061085265","0.023049487","6462678179770","6392427745375","6462677030011"
"1589396927062","1898","1415","1500","-33.69507","10.075456","-2.7216983","0.02864062","0.034835186","23597","24109","0.0","190.0","-0.50585777","1.348986","0.0","0.0","1.3286558","0.07336137","0.035570264","6.7113707E-4","-1.5644206","-0.0563013","-0.045080043","-0.52911","-0.07513323","0.061085265","0.023049487","-0.0563013","0.042969957","-0.52911","-0.07513323","0.061085265","0.023049487","-0.0563013","-0.01547004","-0.52911","-0.07513323","0.061085265","0.023049487","6462678179770","6392427745375","6462677030011"
"1589396927070","1898","1415","1500","-33.69507","10.075456","-2.7216983","0.02864062","0.034835186","23597","24109","0.0","190.0","-0.50585777","1.348986","0.0","0.0","1.3286558","0.07336137","0.035570264","6.7113707E-4","-1.5644206","-0.0563013","-0.045080043","-0.52911","-0.07513323","0.061085265","0.023049487","-0.0563013","0.042969957","-0.52911","-0.07513323","0.061085265","0.023049487","-0.0563013","-0.01547004","-0.52911","-0.07513323","0.061085265","0.023049487","6462678179770","6392427745375","6462677030011"
"1589396927087","1898","1415","1500","-33.69507","10.075456","-2.7216983","0.02864062","0.034835186","23597","24109","0.0","190.0","-0.50585777","1.348986","0.0","0.0","1.3297107","0.07336137","0.035570264","0.0014381509","-1.5636535","-0.056304675","-0.045125466","-0.52911","-0.07168485","0.060260557","0.024194054","-0.056304675","0.042924535","-0.52911","-0.07168485","0.060260557","0.024194054","-0.056304675","-0.0155154625","-0.52911","-0.07168485","0.060260557","0.024194054","6462678179770","6392427745375","6462677030011"
"1589396927092","1898","1415","1500","-33.69507","10.075456","-2.7216983","0.025776558","0.031351667","23597","24109","0.0","190.0","-0.50585777","1.348986","0.0","0.0","1.3297107","0.07336137","0.035570264","0.0014381509","-1.5636535","-0.056304675","-0.045125466","-0.52911","-0.07168485","0.060260557","0.024194054","-0.056304675","0.042924535","-0.52911","-0.07168485","0.060260557","0.024194054","-0.056304675","-0.0155154625","-0.52911","-0.07168485","0.060260557","0.024194054","6462678179770","6392427745375","6462677030011"
"1589396927101","1898","1415","1500","-33.69507","10.075456","-2.7216983","0.025776558","0.031351667","23597","24109","0.0","190.0","-0.50317264","1.3496573","0.0","0.0","1.3297107","0.07336137","0.03547439","0.0014381509","-1.5636535","-0.056304675","-0.045125466","-0.52911","-0.07168485","0.060260557","0.024194054","-0.056304675","0.042924535","-0.52911","-0.07168485","0.060260557","0.024194054","-0.056304675","-0.0155154625","-0.52911","-0.07168485","0.060260557","0.024194054","6462678179770","6392427745375","6462677030011"
"1589396927114","1898","1415","1500","-33.69507","10.075456","-2.7216983","0.025776558","0.031351667","23597","24109","0.0","190.0","-0.50317264","1.3496573","0.0","0.0","1.3297107","0.06904599","0.03547439","0.0014381509","-1.5636535","-0.05630493","-0.04512902","-0.52911","-0.071419396","0.06025415","0.024210026","-0.05630493","0.04292098","-0.52911","-0.071419396","0.06025415","0.024210026","-0.05630493","-0.015519017","-0.52911","-0.071419396","0.06025415","0.024210026","6462678179770","6392427745375","6462709942029"
"1589396927123","1898","1415","1500","-33.69507","10.075456","-2.7216983","0.025776558","0.031351667","23597","24109","0.0","190.0","-0.50317264","1.3496573","0.0","0.0","1.3297107","0.06904599","0.03547439","0.0014381509","-1.5636535","-0.05630493","-0.04512902","-0.52911","-0.071419396","0.06025415","0.024210026","-0.05630493","0.04292098","-0.52911","-0.071419396","0.06025415","0.024210026","-0.05630493","-0.015519017","-0.52911","-0.071419396","0.06025415","0.024210026","6462678179770","6392427745375","6462709942029"
"1589396927129","1898","1415","1500","-33.69507","10.075456","-2.7216983","0.025776558","0.031351667","23597","24109","0.0","0.0","-0.50317264","1.3496573","0.0","0.0","1.3297107","0.06904599","0.03547439","0.0014381509","-1.5636535","-0.05630493","-0.04512902","-0.52911","-0.071419396","0.06025415","0.024210026","-0.05630493","0.04292098","-0.52911","-0.071419396","0.06025415","0.024210026","-0.05630493","-0.015519017","-0.52911","-0.071419396","0.06025415","0.024210026","6462744004860","6392427745375","6462742846917"
"1589396927138","1898","1415","1500","-33.69507","10.075456","-2.7216983","0.023198903","0.0282165","23597","24109","0.0","0.0","-0.50317264","1.3496573","0.0","0.0","1.3316287","0.06904599","0.03547439","0.0023010415","-1.5630783","-0.056309074","-0.045188133","-0.52911","-0.06691964","0.059684366","0.025925841","-0.056309074","0.042861868","-0.52911","-0.06691964","0.059684366","0.025925841","-0.056309074","-0.01557813","-0.52911","-0.06691964","0.059684366","0.025925841","6462744004860","6392427745375","6462742846917"
"1589396927158","1898","1415","1500","-33.69507","10.075456","-2.7216983","0.023198903","0.0282165","23597","24109","0.0","0.0","-0.5006793","1.3504245","0.0","0.0","1.3316287","0.062333185","0.035378512","0.0023010415","-1.5630783","-0.05630963","-0.04519632","-0.52911","-0.0663087","0.05966855","0.025962258","-0.05630963","0.04285368","-0.52911","-0.0663087","0.05966855","0.025962258","-0.05630963","-0.0155863175","-0.52911","-0.0663087","0.05966855","0.025962258","6462744004860","6462644110615","6462775758036"
"1589396927166","1885","1392","1500","-33.69507","10.075456","-2.7216983","0.023198903","0.0282165","23597","24109","0.0","0.0","-0.5006793","1.3504245","0.0","0.0","1.3316287","0.062333185","0.035378512","0.0023010415","-1.5630783","-0.05630963","-0.04519632","-0.52911","-0.0663087","0.05966855","0.025962258","-0.05630963","0.04285368","-0.52911","-0.0663087","0.05966855","0.025962258","-0.05630963","-0.0155863175","-0.52911","-0.0663087","0.05966855","0.025962258","6462744004860","6462644110615","6462775758036"
"1589396927171","1885","1392","1500","-33.69507","10.075456","-2.7216983","0.023198903","0.0282165","23597","24109","0.0","0.0","-0.5006793","1.3504245","0.0","0.0","1.3316287","0.062333185","0.035378512","0.0023010415","-1.5630783","-0.05630963","-0.04519632","-0.52911","-0.0663087","0.05966855","0.025962258","-0.05630963","0.04285368","-0.52911","-0.0663087","0.05966855","0.025962258","-0.05630963","-0.0155863175","-0.52911","-0.0663087","0.05966855","0.025962258","6462744004860","6462644110615","6462775758036"
"1589396927178","1885","1392","1500","-33.69507","10.075456","-2.7216983","0.023198903","0.0282165","23597","24109","0.0","0.0","-0.5006793","1.3504245","0.0","0.0","1.3316287","0.062333185","0.035378512","0.0023010415","-1.5630783","-0.05630963","-0.04519632","-0.52911","-0.0663087","0.05966855","0.025962258","-0.05630963","0.04285368","-0.52911","-0.0663087","0.05966855","0.025962258","-0.05630963","-0.0155863175","-0.52911","-0.0663087","0.05966855","0.025962258","6462809811288","6462644110615","6462775758036"
"1589396927185","1885","1392","1500","-33.69507","10.075456","-2.7216983","0.020879012","0.02539485","23597","24109","0.0","0.0","-0.5006793","1.3504245","0.0","0.0","1.3327794","0.062333185","0.035378512","0.003163932","-1.56327","-0.056315284","-0.045284703","-0.52911","-0.059629075","0.058911722","0.027815683","-0.056315284","0.042765297","-0.52911","-0.059629075","0.058911722","0.027815683","-0.056315284","-0.0156747","-0.52911","-0.059629075","0.058911722","0.027815683","6462809811288","6462644110615","6462775758036"
"1589396927189","1885","1392","1500","-33.69507","10.075456","-2.7216983","0.020879012","0.02539485","23597","24109","0.0","0.0","-0.5006793","1.3504245","0.0","0.0","1.3327794","0.062333185","0.035378512","0.003163932","-1.56327","-0.056315284","-0.045284703","-0.52911","-0.059629075","0.058911722","0.027815683","-0.056315284","0.042765297","-0.52911","-0.059629075","0.058911722","0.027815683","-0.056315284","-0.0156747","-0.52911","-0.059629075","0.058911722","0.027815683","6462809811288","6462644110615","6462808661994"
"1589396927192","1885","1392","1500","-33.69507","10.075456","-2.7216983","0.020879012","0.02539485","23597","24109","0.0","0.0","-0.5006793","1.3504245","0.0","0.0","1.3327794","0.062333185","0.035378512","0.003163932","-1.56327","-0.056315284","-0.045284703","-0.52911","-0.059629075","0.058911722","0.027815683","-0.056315284","0.042765297","-0.52911","-0.059629075","0.058911722","0.027815683","-0.056315284","-0.0156747","-0.52911","-0.059629075","0.058911722","0.027815683","6462809811288","6462644110615","6462808661994"
"1589396927196","1885","1392","1500","-33.69507","10.075456","-2.7216983","0.020879012","0.02539485","23597","24109","0.0","0.0","-0.5017342","1.3514794","0.0","0.0","1.3327794","0.062333185","0.035378512","0.003163932","-1.56327","-0.056315284","-0.045284703","-0.52911","-0.059629075","0.058911722","0.027815683","-0.056315284","0.042765297","-0.52911","-0.059629075","0.058911722","0.027815683","-0.056315284","-0.0156747","-0.52911","-0.059629075","0.058911722","0.027815683","6462809811288","6462644110615","6462808661994"
"1589396927204","1885","1392","1500","-33.69507","10.075456","-2.7216983","0.020879012","0.02539485","23597","24109","0.0","0.0","-0.5017342","1.3514794","0.0","0.0","1.3327794","0.062333185","0.035378512","0.003163932","-1.56327","-0.056314863","-0.04527778","-0.52911","-0.060145278","0.058926042","0.027785301","-0.056314863","0.04277222","-0.52911","-0.060145278","0.058926042","0.027785301","-0.056314863","-0.015667778","-0.52911","-0.060145278","0.058926042","0.027785301","6462809811288","6462644110615","6462808661994"
"1589396927218","1885","1392","1500","-33.69507","10.075456","-2.7216983","0.020879012","0.02539485","23597","24109","0.0","0.0","-0.5017342","1.3514794","0.0","0.0","1.3327794","0.057826016","0.035378512","0.003163932","-1.56327","-0.056314863","-0.04527778","-0.52911","-0.060145278","0.058926042","0.027785301","-0.056314863","0.04277222","-0.52911","-0.060145278","0.058926042","0.027785301","-0.056314863","-0.015667778","-0.52911","-0.060145278","0.058926042","0.027785301","6462809811288","6462644110615","6462808661994"
"1589396927221","1885","1392","1500","-33.69507","10.075456","-2.7216983","0.020879012","0.02539485","23597","24109","0.0","0.0","-0.5017342","1.3514794","0.0","0.0","1.3327794","0.057826016","0.035378512","0.003163932","-1.56327","-0.056314863","-0.04527778","-0.52911","-0.060145278","0.058926042","0.027785301","-0.056314863","0.04277222","-0.52911","-0.060145278","0.058926042","0.027785301","-0.056314863","-0.015667778","-0.52911","-0.060145278","0.058926042","0.027785301","6462809811288","6462644110615","6462808661994"
"1589396927225","1885","1392","1500","-33.69507","10.075456","-2.7216983","0.020879012","0.02539485","23597","24109","0.0","0.0","-0.5017342","1.3514794","0.0","0.0","1.3327794","0.057826016","0.035378512","0.003163932","-1.56327","-0.056314863","-0.04527778","-0.52911","-0.060145278","0.058926042","0.027785301","-0.056314863","0.04277222","-0.52911","-0.060145278","0.058926042","0.027785301","-0.056314863","-0.015667778","-0.52911","-0.060145278","0.058926042","0.027785301","6462809811288","6462644110615","6462808661994"
"1589396927230","1885","1392","1500","-33.69507","10.075456","-2.7216983","0.020879012","0.02539485","23597","24109","0.0","0.0","-0.5017342","1.3514794","0.0","0.0","1.334985","0.057826016","0.035378512","0.003163932","-1.56327","-0.056314863","-0.04527778","-0.52911","-0.060145278","0.058926042","0.027785301","-0.056314863","0.04277222","-0.52911","-0.060145278","0.058926042","0.027785301","-0.056314863","-0.015667778","-0.52911","-0.060145278","0.058926042","0.027785301","6462809811288","6462644110615","6462841559597"
"1589396927248","1885","1392","1500","-33.69507","10.075456","-2.7216983","0.018791111","0.022855364","23597","24109","0.0","0.0","-0.5017342","1.3514794","0.0","0.0","1.334985","0.057826016","0.035378512","0.003930946","-1.5648999","-0.0563185","-0.045339566","-0.52911","-0.055469666","0.05792429","0.02927572","-0.0563185","0.042710435","-0.52911","-0.055469666","0.05792429","0.02927572","-0.0563185","-0.015729561","-0.52911","-0.055469666","0.05792429","0.02927572","6462875608850","6462644110615","6462841559597"
"1589396927253","1885","1392","1500","-33.69507","10.075456","-2.7216983","0.018791111","0.022855364","23597","24109","0.0","0.0","-0.50374806","1.3519589","0.0","0.0","1.334985","0.057826016","0.035378512","0.003930946","-1.5648999","-0.056317408","-0.045320496","-0.52911","-0.056891236","0.057965767","0.029193424","-0.056317408","0.042729504","-0.52911","-0.056891236","0.057965767","0.029193424","-0.056317408","-0.015710494","-0.52911","-0.056891236","0.057965767","0.029193424","6462875608850","6462644110615","6462841559597"
"1589396927256","1867","1362","1500","-33.69507","10.075456","-2.7216983","0.018791111","0.022855364","23597","24109","0.0","0.0","-0.50374806","1.3519589","0.0","0.0","1.334985","0.058305502","0.035378512","0.003930946","-1.5648999","-0.056317408","-0.045320496","-0.52911","-0.056891236","0.057965767","0.029193424","-0.056317408","0.042729504","-0.52911","-0.056891236","0.057965767","0.029193424","-0.056317408","-0.015710494","-0.52911","-0.056891236","0.057965767","0.029193424","6462875608850","6462644110615","6462841559597"
"1589396927260","1867","1362","1500","-33.69507","10.075456","-2.7216983","0.018791111","0.022855364","23597","24109","0.0","0.0","-0.50374806","1.3519589","0.0","0.0","1.334985","0.058305502","0.035378512","0.003930946","-1.5648999","-0.056317408","-0.045320496","-0.52911","-0.056891236","0.057965767","0.029193424","-0.056317408","0.042729504","-0.52911","-0.056891236","0.057965767","0.029193424","-0.056317408","-0.015710494","-0.52911","-0.056891236","0.057965767","0.029193424","6462875608850","6462644110615","6462874459587"
"1589396927264","1867","1362","1500","-33.69507","10.075456","-2.7216983","0.018791111","0.022855364","23597","24109","0.0","0.0","-0.50374806","1.3519589","0.0","0.0","1.334985","0.058305502","0.035378512","0.003930946","-1.5648999","-0.056317408","-0.045320496","-0.52911","-0.056891236","0.057965767","0.029193424","-0.056317408","0.042729504","-0.52911","-0.056891236","0.057965767","0.029193424","-0.056317408","-0.015710494","-0.52911","-0.056891236","0.057965767","0.029193424","6462875608850","6462644110615","6462874459587"
"1589396927272","1867","1362","1500","-33.69507","10.075456","-2.7216983","0.018791111","0.022855364","23598","24110","0.0","0.0","-0.50374806","1.3519589","0.0","0.0","1.334985","0.058305502","0.035378512","0.003930946","-1.5648999","-0.056317408","-0.045320496","-0.52911","-0.056891236","0.057965767","0.029193424","-0.056317408","0.042729504","-0.52911","-0.056891236","0.057965767","0.029193424","-0.056317408","-0.015710494","-0.52911","-0.056891236","0.057965767","0.029193424","6462875608850","6462644110615","6462874459587"
"1589396927285","1867","1362","1500","-33.69507","10.075456","-2.7216983","0.018791111","0.022855364","23598","24110","153.0","167.0","-0.50374806","1.3519589","0.0","0.0","1.337862","0.058305502","0.035378512","0.004218576","-1.5670092","-0.05631704","-0.04531418","-0.52911","-0.0573234","0.057568744","0.029851595","-0.05631704","0.04273582","-0.52911","-0.0573234","0.057568744","0.029851595","-0.05631704","-0.015704177","-0.52911","-0.0573234","0.057568744","0.029851595","6462875608850","6462644110615","6462874459587"
"1589396927288","1867","1362","1500","-33.703197","10.071827","-2.7216983","0.03471436","0.020569827","23598","24110","153.0","167.0","-0.50374806","1.3519589","0.0","0.0","1.337862","0.058305502","0.035378512","0.004218576","-1.5670092","-0.05631704","-0.04531418","-0.52911","-0.0573234","0.057568744","0.029851595","-0.05631704","0.04273582","-0.52911","-0.0573234","0.057568744","0.029851595","-0.05631704","-0.015704177","-0.52911","-0.0573234","0.057568744","0.029851595","6462875608850","6462644110615","6462874459587"
"1589396927294","1867","1362","1500","-33.703197","10.071827","-2.7216983","0.03471436","0.020569827","23598","24110","153.0","167.0","-0.5044193","1.3523425","0.0","0.0","1.337862","0.058305502","0.035378512","0.004218576","-1.5670092","-0.05631704","-0.04531418","-0.52911","-0.0573234","0.057568744","0.029851595","-0.05631704","0.04273582","-0.52911","-0.0573234","0.057568744","0.029851595","-0.05631704","-0.015704177","-0.52911","-0.0573234","0.057568744","0.029851595","6462875608850","6462808661994","6462874459587"
"1589396927303","1867","1362","1500","-33.703197","10.071827","-2.7216983","0.03471436","0.020569827","23598","24110","153.0","167.0","-0.5044193","1.3523425","0.0","0.0","1.337862","0.058305502","0.035378512","0.004218576","-1.5670092","-0.05631704","-0.04531418","-0.52911","-0.0573234","0.057568744","0.029851595","-0.05631704","0.04273582","-0.52911","-0.0573234","0.057568744","0.029851595","-0.05631704","-0.015704177","-0.52911","-0.0573234","0.057568744","0.029851595","6462875608850","6462808661994","6462907353997"
"1589396927314","1867","1362","1500","-33.703197","10.071827","-2.7216983","0.03471436","0.020569827","23598","24110","153.0","167.0","-0.5044193","1.3523425","0.0","0.0","1.337862","0.060031652","0.035378512","0.004218576","-1.5670092","-0.056316774","-0.04530967","-0.52911","-0.057659645","0.05757876","0.029832257","-0.056316774","0.04274033","-0.52911","-0.057659645","0.05757876","0.029832257","-0.056316774","-0.015699668","-0.52911","-0.057659645","0.05757876","0.029832257","6462941402258","6462808661994","6462907353997"
"1589396927317","1867","1362","1500","-33.703197","10.071827","-2.7216983","0.03471436","0.020569827","23598","24111","153.0","167.0","-0.5044193","1.3523425","0.0","0.0","1.337862","0.060031652","0.035378512","0.004218576","-1.5670092","-0.056316774","-0.04530967","-0.52911","-0.057659645","0.05757876","0.029832257","-0.056316774","0.04274033","-0.52911","-0.057659645","0.05757876","0.029832257","-0.056316774","-0.015699668","-0.52911","-0.057659645","0.05757876","0.029832257","6462941402258","6462808661994","6462907353997"
"1589396927321","1867","1362","1500","-33.703197","10.071827","-2.7216983","0.03471436","0.020569827","23598","24111","153.0","197.0","-0.5044193","1.3523425","0.0","0.0","1.337862","0.060031652","0.035378512","0.004218576","-1.5670092","-0.056316774","-0.04530967","-0.52911","-0.057659645","0.05757876","0.029832257","-0.056316774","0.04274033","-0.52911","-0.057659645","0.05757876","0.029832257","-0.056316774","-0.015699668","-0.52911","-0.057659645","0.05757876","0.029832257","6462941402258","6462808661994","6462907353997"
"1589396927324","1867","1362","1500","-33.703197","10.071827","-2.7216983","0.03471436","0.020569827","23598","24111","153.0","197.0","-0.5044193","1.3523425","0.0","0.0","1.337862","0.060031652","0.035378512","0.004218576","-1.5670092","-0.056316774","-0.04530967","-0.52911","-0.057659645","0.05757876","0.029832257","-0.056316774","0.04274033","-0.52911","-0.057659645","0.05757876","0.029832257","-0.056316774","-0.015699668","-0.52911","-0.057659645","0.05757876","0.029832257","6462941402258","6462808661994","6462940257521"
"1589396927328","1867","1362","1500","-33.703197","10.071827","-2.7216983","0.03471436","0.020569827","23598","24111","153.0","197.0","-0.5044193","1.3523425","0.0","0.0","1.337862","0.060031652","0.035378512","0.004218576","-1.5670092","-0.056316774","-0.04530967","-0.52911","-0.057659645","0.05757876","0.029832257","-0.056316774","0.04274033","-0.52911","-0.057659645","0.05757876","0.029832257","-0.056316774","-0.015699668","-0.52911","-0.057659645","0.05757876","0.029832257","6462941402258","6462808661994","6462940257521"
"1589396927340","1867","1362","1500","-33.703197","10.071827","-2.7216983","0.03471436","0.020569827","23598","24111","153.0","197.0","-0.5044193","1.3523425","0.0","0.0","1.3411225","0.060031652","0.035378512","0.004218576","-1.5690227","-0.056315362","-0.045286007","-0.52911","-0.059392497","0.056988463","0.030984612","-0.056315362","0.042763993","-0.52911","-0.059392497","0.056988463","0.030984612","-0.056315362","-0.015676007","-0.52911","-0.059392497","0.056988463","0.030984612","6462941402258","6462808661994","6462940257521"
"1589396927346","1867","1362","1500","-33.707245","10.069973","-2.702395","0.040144105","0.057119403","23598","24111","153.0","197.0","-0.5044193","1.3523425","0.0","0.0","1.3411225","0.060031652","0.035378512","0.004218576","-1.5690227","-0.056315362","-0.045286007","-0.52911","-0.059392497","0.056988463","0.030984612","-0.056315362","0.042763993","-0.52911","-0.059392497","0.056988463","0.030984612","-0.056315362","-0.015676007","-0.52911","-0.059392497","0.056988463","0.030984612","6462941402258","6462808661994","6462940257521"
"1589396927354","1867","1362","1500","-33.707245","10.069973","-2.702395","0.040144105","0.057119403","23598","24111","153.0","197.0","-0.50451523","1.3524383","0.0","0.0","1.3411225","0.06425113","0.035378512","0.004218576","-1.5690227","-0.05631482","-0.045277074","-0.52911","-0.060058597","0.057009052","0.030946681","-0.05631482","0.042772926","-0.52911","-0.060058597","0.057009052","0.030946681","-0.05631482","-0.015667072","-0.52911","-0.060058597","0.057009052","0.030946681","6462941402258","6462808661994","6462940257521"
"1589396927357","1852","1341","1500","-33.707245","10.069973","-2.702395","0.040144105","0.057119403","23598","24111","153.0","197.0","-0.50451523","1.3524383","0.0","0.0","1.3411225","0.06425113","0.035378512","0.004218576","-1.5690227","-0.05631482","-0.045277074","-0.52911","-0.060058597","0.057009052","0.030946681","-0.05631482","0.042772926","-0.52911","-0.060058597","0.057009052","0.030946681","-0.05631482","-0.015667072","-0.52911","-0.060058597","0.057009052","0.030946681","6462941402258","6462808661994","6462940257521"
"1589396927362","1852","1341","1500","-33.707245","10.069973","-2.702395","0.040144105","0.057119403","23598","24111","153.0","197.0","-0.50451523","1.3524383","0.0","0.0","1.3411225","0.06425113","0.035378512","0.004218576","-1.5690227","-0.05631482","-0.045277074","-0.52911","-0.060058597","0.057009052","0.030946681","-0.05631482","0.042772926","-0.52911","-0.060058597","0.057009052","0.030946681","-0.05631482","-0.015667072","-0.52911","-0.060058597","0.057009052","0.030946681","6462941402258","6462808661994","6462973159216"
"1589396927381","1852","1341","1500","-33.707245","10.069973","-2.702395","0.040144105","0.057119403","23599","24112","187.0","246.0","-0.50451523","1.3524383","0.0","0.0","1.3411225","0.06425113","0.035378512","0.004218576","-1.5690227","-0.05631482","-0.045277074","-0.52911","-0.060058597","0.057009052","0.030946681","-0.05631482","0.042772926","-0.52911","-0.060058597","0.057009052","0.030946681","-0.05631482","-0.015667072","-0.52911","-0.060058597","0.057009052","0.030946681","6463007217459","6462808661994","6462973159216"
"1589396927387","1852","1341","1500","-33.707245","10.069973","-2.702395","0.040144105","0.057119403","23599","24112","187.0","246.0","-0.50451523","1.3524383","0.0","0.0","1.3423692","0.06425113","0.035378512","0.0040268223","-1.571803","-0.05631482","-0.045277074","-0.52911","-0.060058597","0.057009052","0.030946681","-0.05631482","0.042772926","-0.52911","-0.060058597","0.057009052","0.030946681","-0.05631482","-0.015667072","-0.52911","-0.060058597","0.057009052","0.030946681","6463007217459","6462808661994","6462973159216"
"1589396927392","1852","1341","1500","-33.7153","10.066189","-2.702395","0.053932052","0.051407464","23599","24112","187.0","246.0","-0.50451523","1.3524383","0.0","0.0","1.3423692","0.06425113","0.035378512","0.0040268223","-1.571803","-0.056311302","-0.04522152","-0.52911","-0.06421478","0.057226025","0.030482681","-0.056311302","0.04282848","-0.52911","-0.06421478","0.057226025","0.030482681","-0.056311302","-0.015611515","-0.52911","-0.06421478","0.057226025","0.030482681","6463007217459","6462808661994","6462973159216"
"1589396927403","1852","1341","1500","-33.7153","10.066189","-2.702395","0.053932052","0.051407464","23599","24112","187.0","246.0","-0.50806344","1.3535892","0.0","0.0","1.3423692","0.06425113","0.035186756","0.0040268223","-1.571803","-0.056311302","-0.04522152","-0.52911","-0.06421478","0.057226025","0.030482681","-0.056311302","0.04282848","-0.52911","-0.06421478","0.057226025","0.030482681","-0.05631155","-0.015615367","-0.52911","-0.06392748","0.05721728","0.030499106","6463007217459","6462808661994","6463006068475"
"1589396927412","1852","1341","1500","-33.7153","10.066189","-2.702395","0.053932052","0.051407464","23599","24112","187.0","246.0","-0.50806344","1.3535892","0.0","0.0","1.3423692","0.067223944","0.035186756","0.0040268223","-1.571803","-0.05631155","-0.04522537","-0.52911","-0.06392748","0.05721728","0.030499106","-0.05631155","0.04282463","-0.52911","-0.06392748","0.05721728","0.030499106","-0.05631155","-0.015615367","-0.52911","-0.06392748","0.05721728","0.030499106","6463007217459","6462808661994","6463006068475"
"1589396927416","1852","1341","1500","-33.7153","10.066189","-2.702395","0.053932052","0.051407464","23599","24112","187.0","246.0","-0.50806344","1.3535892","0.0","0.0","1.3423692","0.067223944","0.035186756","0.0040268223","-1.571803","-0.05631155","-0.04522537","-0.52911","-0.06392748","0.05721728","0.030499106","-0.05631155","0.04282463","-0.52911","-0.06392748","0.05721728","0.030499106","-0.05631155","-0.015615367","-0.52911","-0.06392748","0.05721728","0.030499106","6463007217459","6462808661994","6463006068475"
"1589396927422","1852","1341","1500","-33.7153","10.066189","-2.702395","0.053932052","0.051407464","23600","24113","187.0","246.0","-0.50806344","1.3535892","0.0","0.0","1.3423692","0.067223944","0.035186756","0.0040268223","-1.571803","-0.05631155","-0.04522537","-0.52911","-0.06392748","0.05721728","0.030499106","-0.05631155","0.04282463","-0.52911","-0.06392748","0.05721728","0.030499106","-0.05631155","-0.015615367","-0.52911","-0.06392748","0.05721728","0.030499106","6463007217459","6462808661994","6463006068475"
"1589396927426","1852","1341","1500","-33.7153","10.066189","-2.702395","0.053932052","0.051407464","23600","24113","220.0","316.0","-0.50806344","1.3535892","0.0","0.0","1.3423692","0.067223944","0.035186756","0.0040268223","-1.571803","-0.05631155","-0.04522537","-0.52911","-0.06392748","0.05721728","0.030499106","-0.05631155","0.04282463","-0.52911","-0.06392748","0.05721728","0.030499106","-0.05631155","-0.015615367","-0.52911","-0.06392748","0.05721728","0.030499106","6463007217459","6462808661994","6463038968806"
"1589396927430","1852","1341","1500","-33.7153","10.066189","-2.702395","0.053932052","0.051407464","23600","24113","220.0","316.0","-0.50806344","1.3535892","0.0","0.0","1.3439994","0.067223944","0.035186756","0.0040268223","-1.571803","-0.05631155","-0.04522537","-0.52911","-0.06392748","0.05721728","0.030499106","-0.05631155","0.04282463","-0.52911","-0.06392748","0.05721728","0.030499106","-0.05631155","-0.015615367","-0.52911","-0.06392748","0.05721728","0.030499106","6463007217459","6462808661994","6463038968806"
"1589396927449","1852","1341","1500","-33.7153","10.066189","-2.702395","0.053932052","0.051407464","23600","24113","220.0","316.0","-0.50806344","1.3535892","0.0","0.0","1.3439994","0.067223944","0.035186756","0.0044103293","-1.5741999","-0.056308836","-0.04518464","-0.52911","-0.06693347","0.057556763","0.030834975","-0.056308836","0.042865362","-0.52911","-0.06693347","0.057556763","0.030834975","-0.056308836","-0.015574635","-0.52911","-0.06693347","0.057556763","0.030834975","6463073005752","6462808661994","6463038968806"
"1589396927454","1852","1341","1500","-33.72336","10.062404","-2.702395","0.06634121","0.046266716","23600","24113","220.0","316.0","-0.5111321","1.3551235","0.0","0.0","1.3439994","0.067223944","0.034995005","0.0044103293","-1.5741999","-0.056308836","-0.04518464","-0.52911","-0.06693347","0.057556763","0.030834975","-0.056308836","0.042865362","-0.52911","-0.06693347","0.057556763","0.030834975","-0.056308836","-0.015574635","-0.52911","-0.06693347","0.057556763","0.030834975","6463073005752","6462808661994","6463038968806"
"1589396927458","1852","1341","1500","-33.72336","10.062404","-2.702395","0.06634121","0.046266716","23600","24113","220.0","316.0","-0.5111321","1.3551235","0.0","0.0","1.3439994","0.067223944","0.034995005","0.0044103293","-1.5741999","-0.05630961","-0.04519604","-0.52911","-0.06608268","0.057530567","0.03088388","-0.05630961","0.04285396","-0.52911","-0.06608268","0.057530567","0.03088388","-0.05630961","-0.015586039","-0.52911","-0.06608268","0.057530567","0.03088388","6463073005752","6462940257521","6463038968806"
"1589396927464","1838","1328","1500","-33.72336","10.062404","-2.702395","0.06634121","0.046266716","23600","24113","220.0","316.0","-0.5111321","1.3551235","0.0","0.0","1.3439994","0.067223944","0.034995005","0.0044103293","-1.5741999","-0.05630961","-0.04519604","-0.52911","-0.06608268","0.057530567","0.03088388","-0.05630961","0.04285396","-0.52911","-0.06608268","0.057530567","0.03088388","-0.05630961","-0.015586039","-0.52911","-0.06608268","0.057530567","0.03088388","6463073005752","6462940257521","6463071856396"
"1589396927482","1838","1328","1500","-33.72336","10.062404","-2.702395","0.06634121","0.046266716","23601","24114","220.0","316.0","-0.5111321","1.3551235","0.0","0.0","1.3439994","0.067223944","0.034995005","0.0044103293","-1.5741999","-0.05630961","-0.04519604","-0.52911","-0.06608268","0.057530567","0.03088388","-0.05630961","0.04285396","-0.52911","-0.06608268","0.057530567","0.03088388","-0.05630961","-0.015586039","-0.52911","-0.06608268","0.057530567","0.03088388","6463073005752","6462940257521","6463071856396"
"1589396927489","1838","1328","1500","-33.72336","10.062404","-2.702395","0.06634121","0.046266716","23601","24114","276.0","678.0","-0.5111321","1.3551235","0.0","0.0","1.344287","0.067223944","0.034995005","0.0043144524","-1.5764052","-0.05630961","-0.04519604","-0.52911","-0.06608268","0.057530567","0.03088388","-0.05630961","0.04285396","-0.52911","-0.06608268","0.057530567","0.03088388","-0.05630961","-0.015586039","-0.52911","-0.06608268","0.057530567","0.03088388","6463073005752","6462940257521","6463071856396"
"1589396927492","1838","1328","1500","-33.72336","10.062404","-2.702395","0.06634121","0.046266716","23601","24114","276.0","678.0","-0.5111321","1.3551235","0.0","0.0","1.344287","0.067223944","0.034995005","0.0043144524","-1.5764052","-0.05630961","-0.04519604","-0.52911","-0.066079944","0.057437","0.030941064","-0.05630961","0.04285396","-0.52911","-0.066079944","0.057437","0.030941064","-0.05630961","-0.015586039","-0.52911","-0.066079944","0.057437","0.030941064","6463073005752","6462940257521","6463071856396"
"1589396927500","1838","1328","1500","-33.731415","10.058619","-2.702395","0.07750944","0.041640043","23601","24114","276.0","678.0","-0.5156393","1.3575209","0.0","0.0","1.344287","0.067223944","0.034995005","0.0043144524","-1.5764052","-0.05630961","-0.04519604","-0.52911","-0.066079944","0.057437","0.030941064","-0.05630961","0.04285396","-0.52911","-0.066079944","0.057437","0.030941064","-0.05630961","-0.015586039","-0.52911","-0.066079944","0.057437","0.030941064","6463073005752","6462940257521","6463104757347"
"1589396927505","1838","1328","1500","-33.731415","10.058619","-2.702395","0.07750944","0.041640043","23601","24114","276.0","678.0","-0.5156393","1.3575209","0.0","0.0","1.344287","0.063963436","0.034707375","0.0043144524","-1.5764052","-0.056310385","-0.045207657","-0.52911","-0.06521349","0.05741022","0.03099077","-0.056310385","0.042842343","-0.52911","-0.06521349","0.05741022","0.03099077","-0.056310385","-0.0155976545","-0.52911","-0.06521349","0.05741022","0.03099077","6463073005752","6462940257521","6463104757347"
"1589396927515","1838","1328","1500","-33.731415","10.058619","-2.702395","0.07750944","0.041640043","23602","24116","276.0","678.0","-0.5156393","1.3575209","0.0","0.0","1.344287","0.063963436","0.034707375","0.0043144524","-1.5764052","-0.056310385","-0.045207657","-0.52911","-0.06521349","0.05741022","0.03099077","-0.056310385","0.042842343","-0.52911","-0.06521349","0.05741022","0.03099077","-0.056310385","-0.0155976545","-0.52911","-0.06521349","0.05741022","0.03099077","6463073005752","6462940257521","6463104757347"
"1589396927518","1838","1328","1500","-33.743443","10.052825","-2.6830919","0.09646203","0.076082595","23602","24116","276.0","678.0","-0.5156393","1.3575209","0.0","0.0","1.344287","0.063963436","0.034707375","0.0043144524","-1.5764052","-0.05631328","-0.045252334","-0.52911","-0.06187901","0.056439895","0.03198649","-0.05631328","0.042797666","-0.52911","-0.06187901","0.056439895","0.03198649","-0.05631328","-0.015642334","-0.52911","-0.06187901","0.056439895","0.03198649","6463073005752","6462940257521","6463104757347"
"1589396927521","1838","1328","1500","-33.743443","10.052825","-2.6830919","0.09646203","0.076082595","23602","24116","541.0","977.0","-0.5156393","1.3575209","0.0","0.0","1.344287","0.063963436","0.034707375","0.0043144524","-1.5764052","-0.05631328","-0.045252334","-0.52911","-0.06187901","0.056439895","0.03198649","-0.05631328","0.042797666","-0.52911","-0.06187901","0.056439895","0.03198649","-0.05631328","-0.015642334","-0.52911","-0.06187901","0.056439895","0.03198649","6463073005752","6462940257521","6463104757347"
"1589396927527","1838","1328","1500","-33.743443","10.052825","-2.6830919","0.09646203","0.076082595","23602","24116","541.0","977.0","-0.5156393","1.3575209","0.0","0.0","1.344287","0.063963436","0.034707375","0.0043144524","-1.5764052","-0.05631328","-0.045252334","-0.52911","-0.06187901","0.056439895","0.03198649","-0.05631328","0.042797666","-0.52911","-0.06187901","0.056439895","0.03198649","-0.05631328","-0.015642334","-0.52911","-0.06187901","0.056439895","0.03198649","6463138803779","6462940257521","6463137654485"
"1589396927535","1838","1328","1500","-33.743443","10.052825","-2.6830919","0.09646203","0.076082595","23602","24116","541.0","977.0","-0.5156393","1.3575209","0.0","0.0","1.3410265","0.063963436","0.034707375","0.0033556854","-1.578802","-0.05631328","-0.045252334","-0.52911","-0.061930563","0.05705622","0.03105086","-0.05631328","0.042797666","-0.52911","-0.061930563","0.05705622","0.03105086","-0.05631328","-0.015642334","-0.52911","-0.061930563","0.05705622","0.03105086","6463138803779","6462940257521","6463137654485"
"1589396927540","1838","1328","1500","-33.743443","10.052825","-2.6830919","0.09646203","0.076082595","23602","24116","541.0","977.0","-0.5156393","1.3575209","0.0","0.0","1.3410265","0.063963436","0.034707375","0.0033556854","-1.578802","-0.05631328","-0.045252334","-0.52911","-0.061930563","0.05705622","0.03105086","-0.05631328","0.042797666","-0.52911","-0.061930563","0.05705622","0.03105086","-0.05631328","-0.015642334","-0.52911","-0.061930563","0.05705622","0.03105086","6463138803779","6462940257521","6463137654485"
"1589396927545","1838","1328","1500","-33.743443","10.052825","-2.6830919","0.09646203","0.076082595","23602","24116","541.0","977.0","-0.5156393","1.3575209","0.0","0.0","1.3410265","0.063963436","0.034707375","0.0033556854","-1.578802","-0.05631328","-0.045252334","-0.52911","-0.061930563","0.05705622","0.03105086","-0.05631328","0.042797666","-0.52911","-0.061930563","0.05705622","0.03105086","-0.05631328","-0.015642334","-0.52911","-0.061930563","0.05705622","0.03105086","6463138803779","6462940257521","6463137654485"
"1589396927550","1838","1328","1500","-33.743443","10.052825","-2.6830919","0.09646203","0.076082595","23602","24116","541.0","977.0","-0.5156393","1.3575209","0.0","0.0","1.3410265","0.063963436","0.03451562","0.0033556854","-1.578802","-0.05631328","-0.045252334","-0.52911","-0.061930563","0.05705622","0.03105086","-0.05631328","0.042797666","-0.52911","-0.061930563","0.05705622","0.03105086","-0.05631328","-0.015642334","-0.52911","-0.061930563","0.05705622","0.03105086","6463138803779","6462940257521","6463137654485"
"1589396927554","1838","1328","1500","-33.743443","10.052825","-2.6830919","0.09646203","0.076082595","23602","24116","541.0","977.0","-0.517749","1.3601102","0.0","0.0","1.3410265","0.056962945","0.03451562","0.0033556854","-1.578802","-0.056314114","-0.045265634","-0.52911","-0.060938913","0.057025462","0.031107368","-0.056314114","0.042784367","-0.52911","-0.060938913","0.057025462","0.031107368","-0.056314114","-0.015655631","-0.52911","-0.060938913","0.057025462","0.031107368","6463138803779","6462940257521","6463137654485"
"1589396927557","1830","1309","1500","-33.743443","10.052825","-2.6830919","0.09646203","0.076082595","23602","24116","541.0","977.0","-0.517749","1.3601102","0.0","0.0","1.3410265","0.056962945","0.03451562","0.0033556854","-1.578802","-0.056314114","-0.045265634","-0.52911","-0.060938913","0.057025462","0.031107368","-0.056314114","0.042784367","-0.52911","-0.060938913","0.057025462","0.031107368","-0.056314114","-0.015655631","-0.52911","-0.060938913","0.057025462","0.031107368","6463138803779","6462940257521","6463137654485"
"1589396927562","1830","1309","1500","-33.743443","10.052825","-2.6830919","0.09646203","0.076082595","23602","24116","541.0","977.0","-0.517749","1.3601102","0.0","0.0","1.3410265","0.056962945","0.03451562","0.0033556854","-1.578802","-0.056314114","-0.045265634","-0.52911","-0.060938913","0.057025462","0.031107368","-0.056314114","0.042784367","-0.52911","-0.060938913","0.057025462","0.031107368","-0.056314114","-0.015655631","-0.52911","-0.060938913","0.057025462","0.031107368","6463138803779","6462940257521","6463170555219"
"1589396927580","1830","1309","1500","-33.743443","10.052825","-2.6830919","0.09646203","0.076082595","23604","24118","541.0","977.0","-0.517749","1.3601102","0.0","0.0","1.3410265","0.056962945","0.03451562","0.0033556854","-1.578802","-0.056319524","-0.045357835","-0.52911","-0.054159127","0.057449304","0.02987017","-0.056319524","0.042692166","-0.52911","-0.054159127","0.057449304","0.02987017","-0.056319524","-0.015747832","-0.52911","-0.054159127","0.057449304","0.02987017","6463204617616","6462940257521","6463170555219"
"1589396927587","1830","1309","1500","-33.759407","10.044946","-2.6830919","0.12242055","0.06847434","23604","24118","966.0","1241.0","-0.517749","1.3601102","0.0","0.0","1.3405471","0.056962945","0.03451562","0.0024927948","-1.5811031","-0.056319524","-0.045357835","-0.52911","-0.054167286","0.056907017","0.029770823","-0.056319524","0.042692166","-0.52911","-0.054167286","0.056907017","0.029770823","-0.056319524","-0.015747832","-0.52911","-0.054167286","0.056907017","0.029770823","6463204617616","6462940257521","6463170555219"
"1589396927591","1830","1309","1500","-33.759407","10.044946","-2.6830919","0.12242055","0.06847434","23604","24118","966.0","1241.0","-0.517749","1.3601102","0.0","0.0","1.3405471","0.056962945","0.03451562","0.0024927948","-1.5811031","-0.056319524","-0.045357835","-0.52911","-0.054167286","0.056907017","0.029770823","-0.056319524","0.042692166","-0.52911","-0.054167286","0.056907017","0.029770823","-0.056319524","-0.015747832","-0.52911","-0.054167286","0.056907017","0.029770823","6463204617616","6462940257521","6463203467826"
"1589396927602","1830","1309","1500","-33.759407","10.044946","-2.6830919","0.12242055","0.06847434","23604","24118","966.0","1241.0","-0.5166942","1.3607814","0.0","0.0","1.3405471","0.056962945","0.03451562","0.0024927948","-1.5811031","-0.056319524","-0.045357835","-0.52911","-0.054167286","0.056907017","0.029770823","-0.056319524","0.042692166","-0.52911","-0.054167286","0.056907017","0.029770823","-0.05631952","-0.015747786","-0.52911","-0.054170772","0.056907117","0.02977062","6463204617616","6462940257521","6463203467826"
"1589396927617","1830","1309","1500","-33.759407","10.044946","-2.6830919","0.12242055","0.06847434","23604","24118","966.0","1241.0","-0.5166942","1.3607814","0.0","0.0","1.3405471","0.05025014","0.034803253","0.0024927948","-1.5811031","-0.05631952","-0.045357786","-0.52911","-0.054170772","0.056907117","0.02977062","-0.05631952","0.042692214","-0.52911","-0.054170772","0.056907117","0.02977062","-0.05631952","-0.015747786","-0.52911","-0.054170772","0.056907117","0.02977062","6463237534873","6462940257521","6463203467826"
"1589396927622","1830","1309","1500","-33.759407","10.044946","-2.6830919","0.12242055","0.06847434","23606","24120","1224.0","1465.0","-0.5166942","1.3607814","0.0","0.0","1.3405471","0.05025014","0.034803253","0.0024927948","-1.5811031","-0.05632429","-0.04544984","-0.52911","-0.04741628","0.056577764","0.02838912","-0.05632429","0.04260016","-0.52911","-0.04741628","0.056577764","0.02838912","-0.05632429","-0.01583984","-0.52911","-0.04741628","0.056577764","0.02838912","6463237534873","6463104757347","6463236385300"
"1589396927625","1830","1309","1500","-33.77537","10.037066","-2.6830919","0.14578322","0.061626904","23606","24120","1224.0","1465.0","-0.5166942","1.3607814","0.0","0.0","1.3405471","0.05025014","0.034803253","0.0024927948","-1.5811031","-0.05632429","-0.04544984","-0.52911","-0.04741628","0.056577764","0.02838912","-0.05632429","0.04260016","-0.52911","-0.04741628","0.056577764","0.02838912","-0.05632429","-0.01583984","-0.52911","-0.04741628","0.056577764","0.02838912","6463237534873","6463104757347","6463236385300"
"1589396927628","1830","1309","1500","-33.77537","10.037066","-2.6830919","0.14578322","0.061626904","23606","24120","1224.0","1465.0","-0.5166942","1.3607814","0.0","0.0","1.33978","0.05025014","0.034803253","0.0024927948","-1.5811031","-0.05632429","-0.04544984","-0.52911","-0.04741628","0.056577764","0.02838912","-0.05632429","0.04260016","-0.52911","-0.04741628","0.056577764","0.02838912","-0.05632429","-0.01583984","-0.52911","-0.04741628","0.056577764","0.02838912","6463237534873","6463104757347","6463236385300"
"1589396927633","1830","1309","1500","-33.77537","10.037066","-2.6830919","0.14578322","0.061626904","23606","24120","1224.0","1465.0","-0.5166942","1.3607814","0.0","0.0","1.33978","0.05025014","0.034803253","0.0015340276","-1.5840752","-0.05632429","-0.04544984","-0.52911","-0.04743984","0.05597705","0.02799331","-0.05632429","0.04260016","-0.52911","-0.04743984","0.05597705","0.02799331","-0.05632429","-0.01583984","-0.52911","-0.04743984","0.05597705","0.02799331","6463237534873","6463104757347","6463236385300"
"1589396927641","1830","1309","1500","-33.77537","10.037066","-2.6830919","0.14578322","0.061626904","23606","24120","1224.0","1465.0","-0.5166942","1.3607814","0.0","0.0","1.33978","0.05025014","0.034803253","0.0015340276","-1.5840752","-0.05632429","-0.04544984","-0.52911","-0.04743984","0.05597705","0.02799331","-0.05632429","0.04260016","-0.52911","-0.04743984","0.05597705","0.02799331","-0.05632429","-0.01583984","-0.52911","-0.04743984","0.05597705","0.02799331","6463237534873","6463104757347","6463236385300"
"1589396927650","1830","1309","1500","-33.77537","10.037066","-2.6830919","0.14578322","0.061626904","23606","24120","1224.0","1465.0","-0.51477623","1.3608773","0.0","0.0","1.33978","0.05025014","0.034132116","0.0015340276","-1.5840752","-0.05632429","-0.04544984","-0.52911","-0.04743984","0.05597705","0.02799331","-0.05632429","0.04260016","-0.52911","-0.04743984","0.05597705","0.02799331","-0.05632429","-0.01583984","-0.52911","-0.04743984","0.05597705","0.02799331","6463237534873","6463104757347","6463236385300"
"1589396927653","1830","1309","1500","-33.77537","10.037066","-2.6830919","0.14578322","0.061626904","23606","24120","1224.0","1465.0","-0.51477623","1.3608773","0.0","0.0","1.33978","0.045263484","0.034132116","0.0015340276","-1.5840752","-0.056323927","-0.045442462","-0.52911","-0.04798963","0.0559924","0.02796255","-0.056323927","0.04260754","-0.52911","-0.04798963","0.0559924","0.02796255","-0.056323927","-0.01583246","-0.52911","-0.04798963","0.0559924","0.02796255","6463237534873","6463104757347","6463236385300"
"1589396927657","1822","1298","1500","-33.77537","10.037066","-2.6830919","0.14578322","0.061626904","23606","24120","1224.0","1465.0","-0.51477623","1.3608773","0.0","0.0","1.33978","0.045263484","0.034132116","0.0015340276","-1.5840752","-0.056323927","-0.045442462","-0.52911","-0.04798963","0.0559924","0.02796255","-0.056323927","0.04260754","-0.52911","-0.04798963","0.0559924","0.02796255","-0.056323927","-0.01583246","-0.52911","-0.04798963","0.0559924","0.02796255","6463237534873","6463104757347","6463269294621"
"1589396927660","1822","1298","1500","-33.77537","10.037066","-2.6830919","0.14578322","0.061626904","23606","24120","1224.0","1465.0","-0.51477623","1.3608773","0.0","0.0","1.33978","0.045263484","0.034132116","0.0015340276","-1.5840752","-0.056323927","-0.045442462","-0.52911","-0.04798963","0.0559924","0.02796255","-0.056323927","0.04260754","-0.52911","-0.04798963","0.0559924","0.02796255","-0.056323927","-0.01583246","-0.52911","-0.04798963","0.0559924","0.02796255","6463237534873","6463104757347","6463269294621"
"1589396927667","1822","1298","1500","-33.77537","10.037066","-2.6830919","0.14578322","0.061626904","23606","24120","1224.0","1465.0","-0.51477623","1.3608773","0.0","0.0","1.33978","0.045263484","0.034132116","0.0015340276","-1.5840752","-0.056323927","-0.045442462","-0.52911","-0.04798963","0.0559924","0.02796255","-0.056323927","0.04260754","-0.52911","-0.04798963","0.0559924","0.02796255","-0.056323927","-0.01583246","-0.52911","-0.04798963","0.0559924","0.02796255","6463237534873","6463104757347","6463269294621"
"1589396927685","1822","1298","1500","-33.791332","10.029186","-2.6830919","0.1668096","0.05546421","23608","24122","1421.0","1625.0","-0.51477623","1.3608773","0.0","0.0","1.3394922","0.045263484","0.034132116","9.5876725E-4","-1.5860887","-0.05632698","-0.045508184","-0.52911","-0.043112084","0.05809484","0.027849875","-0.05632698","0.042541817","-0.52911","-0.043112084","0.05809484","0.027849875","-0.05632698","-0.01589818","-0.52911","-0.043112084","0.05809484","0.027849875","6463303360211","6463104757347","6463269294621"
"1589396927692","1822","1298","1500","-33.791332","10.029186","-2.6830919","0.1668096","0.05546421","23608","24122","1421.0","1625.0","-0.51477623","1.3608773","0.0","0.0","1.3394922","0.045263484","0.034132116","9.5876725E-4","-1.5860887","-0.05632698","-0.045508184","-0.52911","-0.043112084","0.05809484","0.027849875","-0.05632698","0.042541817","-0.52911","-0.043112084","0.05809484","0.027849875","-0.05632698","-0.01589818","-0.52911","-0.043112084","0.05809484","0.027849875","6463303360211","6463104757347","6463269294621"
"1589396927703","1822","1298","1500","-33.791332","10.029186","-2.6830919","0.1668096","0.05546421","23608","24122","1421.0","1625.0","-0.50585777","1.360302","0.0","0.0","1.3394922","0.045263484","0.033748608","9.5876725E-4","-1.5860887","-0.05632698","-0.045508184","-0.52911","-0.043112084","0.05809484","0.027849875","-0.05632698","0.042541817","-0.52911","-0.043112084","0.05809484","0.027849875","-0.056326862","-0.015895456","-0.52911","-0.043314904","0.058100473","0.027838102","6463303360211","6463104757347","6463302210390"
"1589396927717","1822","1298","1500","-33.791332","10.029186","-2.6830919","0.1668096","0.05546421","23608","24122","1421.0","1625.0","-0.50585777","1.360302","0.0","0.0","1.3394922","0.0412358","0.033748608","9.5876725E-4","-1.5860887","-0.056326862","-0.04550546","-0.52911","-0.043314904","0.058100473","0.027838102","-0.056326862","0.04254454","-0.52911","-0.043314904","0.058100473","0.027838102","-0.056326862","-0.015895456","-0.52911","-0.043314904","0.058100473","0.027838102","6463303360211","6463104757347","6463302210390"
"1589396927720","1822","1298","1500","-33.791332","10.029186","-2.6830919","0.1668096","0.05546421","23610","24125","1582.0","1748.0","-0.50585777","1.360302","0.0","0.0","1.3394922","0.0412358","0.033748608","9.5876725E-4","-1.5860887","-0.056326862","-0.04550546","-0.52911","-0.043314904","0.058100473","0.027838102","-0.056326862","0.04254454","-0.52911","-0.043314904","0.058100473","0.027838102","-0.056326862","-0.015895456","-0.52911","-0.043314904","0.058100473","0.027838102","6463303360211","6463104757347","6463302210390"
"1589396927724","1822","1298","1500","-33.791332","10.029186","-2.6830919","0.1668096","0.05546421","23610","24125","1582.0","1748.0","-0.50585777","1.360302","0.0","0.0","1.3394922","0.0412358","0.033748608","9.5876725E-4","-1.5860887","-0.05632919","-0.045560718","-0.52911","-0.039135557","0.0610379","0.029727252","-0.05632919","0.042489283","-0.52911","-0.039135557","0.0610379","0.029727252","-0.05632919","-0.015950715","-0.52911","-0.039135557","0.0610379","0.029727252","6463303360211","6463104757347","6463302210390"
"1589396927733","1822","1298","1500","-33.81119","10.019145","-2.6637886","0.19463454","0.08852435","23610","24125","1582.0","1748.0","-0.50585777","1.360302","0.0","0.0","1.3394922","0.0412358","0.033748608","9.5876725E-4","-1.5860887","-0.05632919","-0.045560718","-0.52911","-0.039135557","0.0610379","0.029727252","-0.05632919","0.042489283","-0.52911","-0.039135557","0.0610379","0.029727252","-0.05632919","-0.015950715","-0.52911","-0.03925933","0.057643022","0.027726153","6463303360211","6463104757347","6463302210390"
"1589396927758","1822","1298","1500","-33.81119","10.019145","-2.6637886","0.19463454","0.08852435","23610","24125","1582.0","1748.0","-0.5015424","1.3599184","0.0","0.0","1.3376702","0.03874247","0.033556852","9.587673E-5","-1.5878145","-0.056328945","-0.04555463","-0.52911","-0.03971256","0.057655558","0.027700042","-0.056328945","0.04249537","-0.52911","-0.03971256","0.057655558","0.027700042","-0.056328945","-0.015944628","-0.52911","-0.03971256","0.057655558","0.027700042","6463369158734","6463104757347","6463335107559"
"1589396927764","1824","1293","1500","-33.81119","10.019145","-2.6637886","0.19463454","0.08852435","23610","24125","1582.0","1748.0","-0.5015424","1.3599184","0.0","0.0","1.3376702","0.03874247","0.033556852","9.587673E-5","-1.5878145","-0.056328945","-0.04555463","-0.52911","-0.03971256","0.057655558","0.027700042","-0.056328945","0.04249537","-0.52911","-0.03971256","0.057655558","0.027700042","-0.056328945","-0.015944628","-0.52911","-0.03971256","0.057655558","0.027700042","6463369158734","6463104757347","6463335107559"
"1589396927786","1824","1293","1500","-33.81119","10.019145","-2.6637886","0.19463454","0.08852435","23612","24127","1641.0","1842.0","-0.5015424","1.3599184","0.0","0.0","1.3376702","0.03874247","0.033556852","9.587673E-5","-1.5878145","-0.056330264","-0.045588158","-0.52911","-0.037303623","0.056604866","0.026317159","-0.056330264","0.042461842","-0.52911","-0.037303623","0.056604866","0.026317159","-0.056330264","-0.015978156","-0.52911","-0.037303623","0.056604866","0.026317159","6463402046169","6463269294621","6463368009533"
"1589396927789","1824","1293","1500","-33.827","10.01096","-2.6637886","0.21077581","0.07967191","23612","24127","1641.0","1842.0","-0.5015424","1.3599184","0.0","0.0","1.3370948","0.03874247","0.033556852","-2.876302E-4","-1.5890608","-0.056330264","-0.045588158","-0.52911","-0.037303623","0.056604866","0.026317159","-0.056330264","0.042461842","-0.52911","-0.037303623","0.056604866","0.026317159","-0.056330264","-0.015978156","-0.52911","-0.037303623","0.056604866","0.026317159","6463402046169","6463269294621","6463368009533"
"1589396927794","1824","1293","1500","-33.827","10.01096","-2.6637886","0.21077581","0.07967191","23612","24127","1641.0","1842.0","-0.49741882","1.3597265","0.0","0.0","1.3370948","0.03874247","0.033556852","-2.876302E-4","-1.5890608","-0.056330264","-0.045588158","-0.52911","-0.037303623","0.056604866","0.026317159","-0.056330264","0.042461842","-0.52911","-0.037303623","0.056604866","0.026317159","-0.056330264","-0.015978156","-0.52911","-0.037303623","0.056604866","0.026317159","6463402046169","6463269294621","6463368009533"
"1589396927804","1824","1293","1500","-33.827","10.01096","-2.6637886","0.21077581","0.07967191","23612","24127","1641.0","1842.0","-0.49741882","1.3597265","0.0","0.0","1.3370948","0.03874247","0.03346098","-2.876302E-4","-1.5890608","-0.056330264","-0.045588158","-0.52911","-0.037303623","0.056604866","0.026317159","-0.056330264","0.042461842","-0.52911","-0.037303623","0.056604866","0.026317159","-0.056330264","-0.015978156","-0.52911","-0.037303623","0.056604866","0.026317159","6463402046169","6463269294621","6463400896782"
"1589396927811","1824","1293","1500","-33.827","10.01096","-2.6637886","0.21077581","0.07967191","23612","24127","1641.0","1842.0","-0.49741882","1.3597265","0.0","0.0","1.3370948","0.036824528","0.03346098","-2.876302E-4","-1.5890608","-0.05633018","-0.04558599","-0.52911","-0.037464943","0.05660911","0.026308035","-0.05633018","0.04246401","-0.52911","-0.037464943","0.05660911","0.026308035","-0.05633018","-0.01597599","-0.52911","-0.037464943","0.05660911","0.026308035","6463402046169","6463269294621","6463400896782"
"1589396927815","1824","1293","1500","-33.827","10.01096","-2.6637886","0.21077581","0.07967191","23612","24127","1641.0","1842.0","-0.49741882","1.3597265","0.0","0.0","1.3370948","0.036824528","0.03346098","-2.876302E-4","-1.5890608","-0.05633018","-0.04558599","-0.52911","-0.037464943","0.05660911","0.026308035","-0.05633018","0.04246401","-0.52911","-0.037464943","0.05660911","0.026308035","-0.05633018","-0.01597599","-0.52911","-0.037464943","0.05660911","0.026308035","6463402046169","6463269294621","6463400896782"
"1589396927824","1824","1293","1500","-33.827","10.01096","-2.6637886","0.21077581","0.07967191","23615","24130","1641.0","1842.0","-0.49741882","1.3597265","0.0","0.0","1.3370948","0.036824528","0.03346098","-2.876302E-4","-1.5890608","-0.05633018","-0.04558599","-0.52911","-0.037464943","0.05660911","0.026308035","-0.05633018","0.04246401","-0.52911","-0.037464943","0.05660911","0.026308035","-0.05633018","-0.01597599","-0.52911","-0.037464943","0.05660911","0.026308035","6463402046169","6463269294621","6463400896782"
