"timeStamp","surroundings_IR_Left","surroundings_IR_Right","surroundings_UltraSonic","pose2D_x","pose2D_y","pose2D_theta","pose2D_linearVelocity","pose2D_angularVelocity","baseTick_left","baseTick_right","wheelSpeed_SpeedLeft","wheelSpeed_SpeedRight","headPoseWorld_roll","headPoseWorld_pitch","headPoseWorld_yaw","headPoseJoint_roll","headPoseJoint_pitch","headPoseJoint_yaw","baseImu_roll","baseImu_pitch","baseImu_yaw","fishEyeTf_tx","fishEyeTf_ty","fishEyeTf_tz","fishEyeTf_roll","fishEyeTf_pitch","fishEyeTf_yaw","colorTf_tx","colorTf_ty","colorTf_tz","colorTf_roll","colorTf_pitch","colorTf_yaw","depthTf_tx","depthTf_ty","depthTf_tz","depthTf_roll","depthTf_pitch","depthTf_yaw","fishEyeIndex","colorIndex","depthIndex"
"1589396821289","1145","1282","1500","-6.206344","2.9318066","-1.8241279","-0.042364053","0.022134868","13486","13719","-223.0","-176.0","-0.001342561","0.88196665","0.0","0.0","0.8548277","0.072690085","-0.006231987","8.628905E-4","-0.10239634","-0.05630456","-0.045123897","-0.52911","-0.07258478","-0.005066369","-0.0104121","-0.05630456","0.042926103","-0.52911","-0.07258478","-0.005066369","-0.0104121","-0.05630456","-0.015513896","-0.52911","-0.07258478","-0.005066369","-0.0104121","6329482815620","0","6329481665520"
"1589396821298","1145","1282","1500","-6.206344","2.9318066","-1.8241279","-0.042364053","0.022134868","13486","13719","-223.0","-176.0","-0.001342561","0.88196665","0.0","0.0","0.8548277","0.072690085","-0.0061361105","8.628905E-4","-0.10239634","-0.05630456","-0.045123897","-0.52911","-0.07258478","-0.005066369","-0.0104121","-0.05630456","0.042926103","-0.52911","-0.07258478","-0.005066369","-0.0104121","-0.05630456","-0.015513896","-0.52911","-0.07258478","-0.005066369","-0.0104121","6329482815620","0","6329481665520"
"1589396821303","1145","1282","1500","-6.206344","2.9318066","-1.8241279","-0.042364053","0.022134868","13486","13719","-223.0","-176.0","-0.0012466637","0.88187075","0.0","0.0","0.8548277","0.07355316","-0.0061361105","8.628905E-4","-0.10239634","-0.056304336","-0.04512081","-0.52911","-0.07281506","-0.0050687646","-0.010410934","-0.056304336","0.04292919","-0.52911","-0.07281506","-0.0050687646","-0.010410934","-0.056304336","-0.015510808","-0.52911","-0.07281506","-0.0050687646","-0.010410934","6329482815620","0","6358178258260"
"1589396821318","1145","1282","1500","-6.206344","2.9318066","-1.8241279","-0.042364053","0.022134868","13485","13719","-223.0","-176.0","-0.0012466637","0.88187075","0.0","0.0","0.8548277","0.07355316","-0.0061361105","8.628905E-4","-0.10239634","-0.056304336","-0.04512081","-0.52911","-0.07281506","-0.0050687646","-0.010410934","-0.056304336","0.04292919","-0.52911","-0.07281506","-0.0050687646","-0.010410934","-0.056304336","-0.015510808","-0.52911","-0.07281506","-0.0050687646","-0.010410934","6329482815620","0","6358178258260"
"1589396821339","1145","1282","1500","-6.2052703","2.9361258","-1.8048246","-0.04702883","0.05852794","13485","13719","-253.0","-176.0","-0.0012466637","0.88187075","0.0","0.0","0.8548277","0.07355316","-0.0060402337","7.670138E-4","-0.103163354","-0.056303483","-0.045109227","-0.52911","-0.07367923","-0.004879388","-0.01057112","-0.056303483","0.042940773","-0.52911","-0.07367923","-0.004879388","-0.01057112","-0.056303483","-0.015499224","-0.52911","-0.07367923","-0.004879388","-0.01057112","6358212317991","0","6358178258260"
"1589396821348","1145","1282","1500","-6.2052703","2.9361258","-1.8048246","-0.04702883","0.05852794","13485","13719","-253.0","-176.0","-0.0011507665","0.88215846","0.0","0.0","0.8548277","0.07355316","-0.0060402337","7.670138E-4","-0.103163354","-0.056303483","-0.045109227","-0.52911","-0.07367923","-0.004879388","-0.01057112","-0.056303483","0.042940773","-0.52911","-0.07367923","-0.004879388","-0.01057112","-0.056303483","-0.015499224","-0.52911","-0.07367923","-0.004879388","-0.01057112","6358212317991","0","6358211168232"
"1589396821358","1145","1282","1500","-6.2052703","2.9361258","-1.8048246","-0.04702883","0.05852794","13485","13719","-253.0","-176.0","-0.0011507665","0.88215846","0.0","0.0","0.8548277","0.07374495","-0.0060402337","7.670138E-4","-0.103163354","-0.05630359","-0.04511067","-0.52911","-0.07357178","-0.0048782527","-0.010571643","-0.05630359","0.04293933","-0.52911","-0.07357178","-0.0048782527","-0.010571643","-0.05630359","-0.015500666","-0.52911","-0.07357178","-0.0048782527","-0.010571643","6358212317991","0","6358211168232"
"1589396821368","1142","1289","1500","-6.2052703","2.9361258","-1.8048246","-0.04702883","0.05852794","13485","13719","-253.0","-176.0","-0.0011507665","0.88215846","0.0","0.0","0.8548277","0.07374495","-0.0060402337","7.670138E-4","-0.103163354","-0.05630359","-0.04511067","-0.52911","-0.07357178","-0.0048782527","-0.010571643","-0.05630359","0.04293933","-0.52911","-0.07357178","-0.0048782527","-0.010571643","-0.05630359","-0.015500666","-0.52911","-0.07357178","-0.0048782527","-0.010571643","6358212317991","0","6358244077987"
"1589396821378","1142","1289","1500","-6.2052703","2.9361258","-1.8048246","-0.04702883","0.05852794","13485","13719","-253.0","-176.0","-0.0011507665","0.88215846","0.0","0.0","0.8548277","0.07374495","-0.0060402337","8.628905E-4","-0.104218","-0.05630359","-0.04511067","-0.52911","-0.07357178","-0.0048782527","-0.010571643","-0.05630359","0.04293933","-0.52911","-0.07357178","-0.0048782527","-0.010571643","-0.05630359","-0.015500666","-0.52911","-0.07357178","-0.0048782527","-0.010571643","6358212317991","0","6358244077987"
"1589396821386","1142","1289","1500","-6.2052703","2.9361258","-1.8048246","-0.042325944","0.052675147","13485","13719","-253.0","-176.0","-0.0011507665","0.88215846","0.0","0.0","0.8553072","0.07374495","-0.0060402337","8.628905E-4","-0.104218","-0.0563034","-0.045108095","-0.52911","-0.073763885","-0.0049367673","-0.010517955","-0.0563034","0.042941906","-0.52911","-0.073763885","-0.0049367673","-0.010517955","-0.0563034","-0.0154980915","-0.52911","-0.073763885","-0.0049367673","-0.010517955","6358212317991","0","6358244077987"
"1589396821395","1142","1289","1500","-6.2052703","2.9361258","-1.8048246","-0.042325944","0.052675147","13485","13719","-253.0","-176.0","-8.630749E-4","0.8824461","0.0","0.0","0.8553072","0.07374495","-0.0060402337","8.628905E-4","-0.104218","-0.0563034","-0.045108095","-0.52911","-0.073763885","-0.0049367673","-0.010517955","-0.0563034","0.042941906","-0.52911","-0.073763885","-0.0049367673","-0.010517955","-0.0563034","-0.0154980915","-0.52911","-0.073763885","-0.0049367673","-0.010517955","6358212317991","0","6358244077987"
"1589396821410","1142","1289","1500","-6.2052703","2.9361258","-1.8048246","-0.042325944","0.052675147","13485","13719","-253.0","-176.0","-8.630749E-4","0.8824461","0.0","0.0","0.8553072","0.06779933","-0.0060402337","8.628905E-4","-0.104218","-0.05630437","-0.045121275","-0.52911","-0.072781324","-0.004926439","-0.010522796","-0.05630437","0.042928725","-0.52911","-0.072781324","-0.004926439","-0.010522796","-0.05630437","-0.015511271","-0.52911","-0.072781324","-0.004926439","-0.010522796","6358212317991","6358178258260","6358276988269"
"1589396821420","1142","1289","1500","-6.2052703","2.9361258","-1.8048246","-0.042325944","0.052675147","13484","13719","-290.0","-176.0","-8.630749E-4","0.8824461","0.0","0.0","0.8553072","0.06779933","-0.0060402337","8.628905E-4","-0.104218","-0.05630437","-0.045121275","-0.52911","-0.072781324","-0.004926439","-0.010522796","-0.05630437","0.042928725","-0.52911","-0.072781324","-0.004926439","-0.010522796","-0.05630437","-0.015511271","-0.52911","-0.072781324","-0.004926439","-0.010522796","6358212317991","6358178258260","6358276988269"
"1589396821429","1142","1289","1500","-6.2052703","2.9361258","-1.8048246","-0.042325944","0.052675147","13484","13719","-290.0","-176.0","-8.630749E-4","0.8824461","0.0","0.0","0.8553072","0.06779933","-0.0060402337","7.670138E-4","-0.10508089","-0.05630437","-0.045121275","-0.52911","-0.072781324","-0.004926439","-0.010522796","-0.05630437","0.042928725","-0.52911","-0.072781324","-0.004926439","-0.010522796","-0.05630437","-0.015511271","-0.52911","-0.072781324","-0.004926439","-0.010522796","6358212317991","6358178258260","6358276988269"
"1589396821443","1142","1289","1500","-6.20428","2.9404647","-1.7855213","-0.04699453","0.08601419","13484","13719","-290.0","-176.0","-8.630749E-4","0.8824461","0.0","0.0","0.8552113","0.06779933","-0.005944357","7.670138E-4","-0.10508089","-0.05630995","-0.04520109","-0.52911","-0.06683455","-0.0044859652","-0.010296019","-0.05630995","0.04284891","-0.52911","-0.06683455","-0.0044859652","-0.010296019","-0.05630995","-0.015591087","-0.52911","-0.06683455","-0.0044859652","-0.010296019","6358212317991","6358178258260","6358276988269"
"1589396821450","1142","1289","1500","-6.20428","2.9404647","-1.7855213","-0.04699453","0.08601419","13484","13719","-290.0","-176.0","-6.712805E-4","0.8829256","0.0","0.0","0.8552113","0.06779933","-0.005944357","7.670138E-4","-0.10508089","-0.05630995","-0.04520109","-0.52911","-0.06683455","-0.0044859652","-0.010296019","-0.05630995","0.04284891","-0.52911","-0.06683455","-0.0044859652","-0.010296019","-0.05630995","-0.015591087","-0.52911","-0.06683455","-0.0044859652","-0.010296019","6358278137873","6358178258260","6358276988269"
"1589396821456","1138","1296","1500","-6.20428","2.9404647","-1.7855213","-0.04699453","0.08601419","13484","13719","-290.0","-176.0","-6.712805E-4","0.8829256","0.0","0.0","0.8552113","0.05945627","-0.005944357","7.670138E-4","-0.10508089","-0.056310292","-0.04520624","-0.52911","-0.06645078","-0.0044820164","-0.010297738","-0.056310292","0.04284376","-0.52911","-0.06645078","-0.0044820164","-0.010297738","-0.056310292","-0.015596237","-0.52911","-0.06645078","-0.0044820164","-0.010297738","6358278137873","6358178258260","6358309898272"
"1589396821461","1138","1296","1500","-6.20428","2.9404647","-1.7855213","-0.04699453","0.08601419","13484","13718","-290.0","-176.0","-6.712805E-4","0.8829256","0.0","0.0","0.8552113","0.05945627","-0.005944357","7.670138E-4","-0.10508089","-0.056310292","-0.04520624","-0.52911","-0.06645078","-0.0044820164","-0.010297738","-0.056310292","0.04284376","-0.52911","-0.06645078","-0.0044820164","-0.010297738","-0.056310292","-0.015596237","-0.52911","-0.06645078","-0.0044820164","-0.010297738","6358278137873","6358178258260","6358309898272"
"1589396821464","1138","1296","1500","-6.20428","2.9404647","-1.7855213","-0.04699453","0.08601419","13484","13718","-290.0","-172.0","-6.712805E-4","0.8829256","0.0","0.0","0.8552113","0.05945627","-0.005944357","7.670138E-4","-0.10508089","-0.056310292","-0.04520624","-0.52911","-0.06645078","-0.0044820164","-0.010297738","-0.056310292","0.04284376","-0.52911","-0.06645078","-0.0044820164","-0.010297738","-0.056310292","-0.015596237","-0.52911","-0.06645078","-0.0044820164","-0.010297738","6358278137873","6358178258260","6358309898272"
"1589396821470","1138","1296","1500","-6.20428","2.9404647","-1.7855213","-0.04699453","0.08601419","13484","13718","-290.0","-172.0","-6.712805E-4","0.8829256","0.0","0.0","0.8552113","0.05945627","-0.005944357","7.670138E-4","-0.10508089","-0.056310292","-0.04520624","-0.52911","-0.06645078","-0.0044820164","-0.010297738","-0.056310292","0.04284376","-0.52911","-0.06645078","-0.0044820164","-0.010297738","-0.056310292","-0.015596237","-0.52911","-0.06645078","-0.0044820164","-0.010297738","6358278137873","6358178258260","6358309898272"
"1589396821481","1138","1296","1500","-6.20428","2.9404647","-1.7855213","-0.04699453","0.08601419","13484","13718","-290.0","-172.0","-6.712805E-4","0.8829256","0.0","0.0","0.8552113","0.05945627","-0.005944357","8.628905E-4","-0.105943784","-0.056310292","-0.04520624","-0.52911","-0.06645078","-0.0044820164","-0.010297738","-0.056310292","0.04284376","-0.52911","-0.06645078","-0.0044820164","-0.010297738","-0.056310292","-0.015596237","-0.52911","-0.06645078","-0.0044820164","-0.010297738","6358278137873","6358178258260","6358309898272"
"1589396821490","1138","1296","1500","-6.2032895","2.9448037","-1.8048246","-0.051196255","0.03880621","13484","13718","-290.0","-172.0","-6.712805E-4","0.8829256","0.0","0.0","0.8557867","0.05945627","-0.005944357","8.628905E-4","-0.105943784","-0.05631728","-0.045318294","-0.52911","-0.058103792","-0.0046805823","-0.010291397","-0.05631728","0.042731706","-0.52911","-0.058103792","-0.0046805823","-0.010291397","-0.05631728","-0.015708294","-0.52911","-0.058103792","-0.0046805823","-0.010291397","6358278137873","6358178258260","6358309898272"
"1589396821496","1138","1296","1500","-6.2032895","2.9448037","-1.8048246","-0.051196255","0.03880621","13484","13718","-290.0","-172.0","-6.712805E-4","0.8829256","0.0","0.0","0.8557867","0.05945627","-0.005944357","8.628905E-4","-0.105943784","-0.05631728","-0.045318294","-0.52911","-0.058103792","-0.0046805823","-0.010291397","-0.05631728","0.042731706","-0.52911","-0.058103792","-0.0046805823","-0.010291397","-0.05631728","-0.015708294","-0.52911","-0.058103792","-0.0046805823","-0.010291397","6358278137873","6358178258260","6358309898272"
"1589396821502","1138","1296","1500","-6.2032895","2.9448037","-1.8048246","-0.051196255","0.03880621","13484","13718","-290.0","-172.0","-5.7538325E-4","0.8829256","0.0","0.0","0.8557867","0.05945627","-0.005944357","8.628905E-4","-0.105943784","-0.05631728","-0.045318294","-0.52911","-0.058103792","-0.0046805823","-0.010291397","-0.05631728","0.042731706","-0.52911","-0.058103792","-0.0046805823","-0.010291397","-0.056317125","-0.015705613","-0.52911","-0.058303315","-0.0046826345","-0.010290463","6358278137873","6358178258260","6358375683310"
"1589396821514","1138","1296","1500","-6.2032895","2.9448037","-1.8048246","-0.051196255","0.03880621","13484","13718","-290.0","-172.0","-5.7538325E-4","0.8829256","0.0","0.0","0.8557867","0.052359875","-0.005944357","8.628905E-4","-0.105943784","-0.056317125","-0.045315616","-0.52911","-0.058303315","-0.0046826345","-0.010290463","-0.056317125","0.042734385","-0.52911","-0.058303315","-0.0046826345","-0.010290463","-0.056317125","-0.015705613","-0.52911","-0.058303315","-0.0046826345","-0.010290463","6358376832294","6358178258260","6358375683310"
"1589396821526","1138","1296","1500","-6.2032895","2.9448037","-1.8048246","-0.051196255","0.03880621","13484","13718","-290.0","-172.0","-5.7538325E-4","0.8829256","0.0","0.0","0.8557867","0.052359875","-0.005944357","8.628905E-4","-0.105943784","-0.056317125","-0.045315616","-0.52911","-0.058303315","-0.0046826345","-0.010290463","-0.056317125","0.042734385","-0.52911","-0.058303315","-0.0046826345","-0.010290463","-0.056317125","-0.015705613","-0.52911","-0.058303315","-0.0046826345","-0.010290463","6358376832294","6358178258260","6358375683310"
"1589396821537","1138","1296","1500","-6.2032895","2.9448037","-1.8048246","-0.051196255","0.03880621","13484","13718","-290.0","-172.0","-5.7538325E-4","0.8829256","0.0","0.0","0.8559785","0.052359875","-0.005944357","7.670138E-4","-0.10661492","-0.056317125","-0.045315616","-0.52911","-0.058303315","-0.0046826345","-0.010290463","-0.05632235","0.042639032","-0.52911","-0.05120596","-0.004474746","-0.010111942","-0.05632235","-0.015800968","-0.52911","-0.05120596","-0.004474746","-0.010111942","6358376832294","6358309898272","6358408580138"
"1589396821546","1138","1296","1500","-6.2032895","2.9448037","-1.8048246","-0.04607663","0.03492559","13484","13718","-290.0","-172.0","-5.7538325E-4","0.8829256","0.0","0.0","0.8559785","0.052359875","-0.005944357","7.670138E-4","-0.10661492","-0.05632235","-0.04541097","-0.52911","-0.05120596","-0.004474746","-0.010111942","-0.05632235","0.042639032","-0.52911","-0.05120596","-0.004474746","-0.010111942","-0.05632235","-0.015800968","-0.52911","-0.05120596","-0.004474746","-0.010111942","6358376832294","6358309898272","6358408580138"
"1589396821559","1138","1296","1500","-6.2032895","2.9448037","-1.8048246","-0.04607663","0.03492559","13484","13718","-290.0","-172.0","-2.8769163E-4","0.88311744","0.0","0.0","0.8559785","0.043729126","-0.005944357","7.670138E-4","-0.10661492","-0.05632252","-0.04541427","-0.52911","-0.050960425","-0.004472264","-0.010113039","-0.05632252","0.04263573","-0.52911","-0.050960425","-0.004472264","-0.010113039","-0.05632252","-0.015804267","-0.52911","-0.050960425","-0.004472264","-0.010113039","6358376832294","6358309898272","6358408580138"
"1589396821566","1141","1299","1500","-6.2022996","2.9491427","-1.7855213","-0.050370146","0.07003959","13483","13718","-290.0","-172.0","-2.8769163E-4","0.88311744","0.0","0.0","0.8559785","0.043729126","-0.005944357","7.670138E-4","-0.10661492","-0.056327935","-0.045530286","-0.52911","-0.04233067","-0.0038994818","-0.0098226005","-0.056327935","0.042519715","-0.52911","-0.04233067","-0.0038994818","-0.0098226005","-0.056327935","-0.015920285","-0.52911","-0.04233067","-0.0038994818","-0.0098226005","6358442625640","6358309898272","6358408580138"
"1589396821570","1141","1299","1500","-6.2022996","2.9491427","-1.7855213","-0.050370146","0.07003959","13483","13718","-298.0","-172.0","-2.8769163E-4","0.88311744","0.0","0.0","0.8559785","0.043729126","-0.005944357","7.670138E-4","-0.10661492","-0.056327935","-0.045530286","-0.52911","-0.04233067","-0.0038994818","-0.0098226005","-0.056327935","0.042519715","-0.52911","-0.04233067","-0.0038994818","-0.0098226005","-0.056327935","-0.015920285","-0.52911","-0.04233067","-0.0038994818","-0.0098226005","6358442625640","6358309898272","6358408580138"
"1589396821576","1141","1299","1500","-6.2022996","2.9491427","-1.7855213","-0.050370146","0.07003959","13483","13718","-298.0","-172.0","-2.8769163E-4","0.88311744","0.0","0.0","0.8559785","0.043729126","-0.005944357","6.7113707E-4","-0.10719018","-0.056327935","-0.045530286","-0.52911","-0.042329885","-0.0039833444","-0.010141636","-0.056327935","0.042519715","-0.52911","-0.042329885","-0.0039833444","-0.010141636","-0.056327935","-0.015920285","-0.52911","-0.042329885","-0.0039833444","-0.010141636","6358442625640","6358309898272","6358441477276"
"1589396821586","1141","1299","1500","-6.2022996","2.9491427","-1.7855213","-0.050370146","0.07003959","13483","13718","-298.0","-172.0","-2.8769163E-4","0.88311744","0.0","0.0","0.8562662","0.043729126","-0.005944357","6.7113707E-4","-0.10719018","-0.056327935","-0.045530286","-0.52911","-0.042329885","-0.0039833444","-0.010141636","-0.056327935","0.042519715","-0.52911","-0.042329885","-0.0039833444","-0.010141636","-0.056327935","-0.015920285","-0.52911","-0.042329885","-0.0039833444","-0.010141636","6358442625640","6358309898272","6358441477276"
"1589396821596","1141","1299","1500","-6.2022996","2.9491427","-1.7855213","-0.050370146","0.07003959","13483","13718","-298.0","-172.0","-2.8769163E-4","0.88311744","0.0","0.0","0.8562662","0.043729126","-0.005944357","6.7113707E-4","-0.10719018","-0.056327935","-0.045530286","-0.52911","-0.042329885","-0.0039833444","-0.010141636","-0.056327935","0.042519715","-0.52911","-0.042329885","-0.0039833444","-0.010141636","-0.056327935","-0.015920285","-0.52911","-0.042329885","-0.0039833444","-0.010141636","6358442625640","6358309898272","6358441477276"
"1589396821606","1141","1299","1500","-6.2022996","2.9491427","-1.7855213","-0.050370146","0.07003959","13483","13718","-298.0","-172.0","0.0","0.8829256","0.0","0.0","0.8562662","0.043729126","-0.005944357","6.7113707E-4","-0.10719018","-0.056327876","-0.045528844","-0.52911","-0.042437293","-0.003984433","-0.01014121","-0.056327876","0.042521156","-0.52911","-0.042437293","-0.003984433","-0.01014121","-0.056327876","-0.01591884","-0.52911","-0.042437293","-0.003984433","-0.01014121","6358442625640","6358309898272","6358474354078"
"1589396821621","1141","1299","1500","-6.2022996","2.9491427","-1.7855213","-0.050370146","0.07003959","13483","13718","-298.0","-172.0","0.0","0.8829256","0.0","0.0","0.8562662","0.03576966","-0.005944357","6.7113707E-4","-0.10719018","-0.056331996","-0.045635875","-0.52911","-0.034477822","-0.0037344666","-0.010215642","-0.056331996","0.042414125","-0.52911","-0.034477822","-0.0037344666","-0.010215642","-0.056331996","-0.016025873","-0.52911","-0.034477822","-0.0037344666","-0.010215642","6358442625640","6358309898272","6358474354078"
"1589396821627","1141","1299","1500","-6.2022996","2.9491427","-1.7855213","-0.045333132","0.06303564","13483","13718","-298.0","-172.0","0.0","0.8829256","0.0","0.0","0.8562662","0.03576966","-0.005944357","6.7113707E-4","-0.108053066","-0.056331996","-0.045635875","-0.52911","-0.03447794","-0.003852866","-0.010185509","-0.056331996","0.042414125","-0.52911","-0.03447794","-0.003852866","-0.010185509","-0.056331996","-0.016025873","-0.52911","-0.03447794","-0.003852866","-0.010185509","6358442625640","6358309898272","6358474354078"
"1589396821634","1141","1299","1500","-6.2022996","2.9491427","-1.7855213","-0.045333132","0.06303564","13483","13718","-298.0","-172.0","0.0","0.8829256","0.0","0.0","0.8563621","0.03576966","-0.005944357","6.7113707E-4","-0.108053066","-0.056331996","-0.045635875","-0.52911","-0.03447794","-0.003852866","-0.010185509","-0.056331996","0.042414125","-0.52911","-0.03447794","-0.003852866","-0.010185509","-0.056331996","-0.016025873","-0.52911","-0.03447794","-0.003852866","-0.010185509","6358442625640","6358309898272","6358507253324"
"1589396821638","1141","1299","1500","-6.2022996","2.9491427","-1.7855213","-0.045333132","0.06303564","13483","13718","-298.0","-172.0","0.0","0.8829256","0.0","0.0","0.8563621","0.03576966","-0.0058484804","6.7113707E-4","-0.108053066","-0.056331996","-0.045635875","-0.52911","-0.03447794","-0.003852866","-0.010185509","-0.056331996","0.042414125","-0.52911","-0.03447794","-0.003852866","-0.010185509","-0.056331996","-0.016025873","-0.52911","-0.03447794","-0.003852866","-0.010185509","6358442625640","6358309898272","6358507253324"
"1589396821650","1141","1299","1500","-6.2022996","2.9491427","-1.7855213","-0.045333132","0.06303564","13483","13718","-298.0","-172.0","0.0","0.8827338","0.0","0.0","0.8563621","0.03576966","-0.0058484804","6.7113707E-4","-0.108053066","-0.056331996","-0.045635875","-0.52911","-0.03447794","-0.003852866","-0.010185509","-0.056331996","0.042414125","-0.52911","-0.03447794","-0.003852866","-0.010185509","-0.056331996","-0.016025873","-0.52911","-0.03447794","-0.003852866","-0.010185509","6358442625640","6358309898272","6358507253324"
"1589396821656","1141","1299","1500","-6.2022996","2.9491427","-1.7855213","-0.045333132","0.06303564","13483","13718","-298.0","-172.0","0.0","0.8827338","0.0","0.0","0.8563621","0.031837873","-0.0058484804","6.7113707E-4","-0.108053066","-0.056331694","-0.045627207","-0.52911","-0.03512233","-0.003859427","-0.010183022","-0.056331694","0.042422794","-0.52911","-0.03512233","-0.003859427","-0.010183022","-0.056331694","-0.016017206","-0.52911","-0.03512233","-0.003859427","-0.010183022","6358508402587","6358309898272","6358507253324"
"1589396821669","1139","1309","1500","-6.2022996","2.9491427","-1.7855213","-0.045333132","0.06303564","13482","13717","-298.0","-172.0","0.0","0.8827338","0.0","0.0","0.8563621","0.031837873","-0.0058484804","6.7113707E-4","-0.108053066","-0.05633345","-0.04568009","-0.52911","-0.03119087","-0.0038193697","-0.010198115","-0.05633345","0.04236991","-0.52911","-0.03119087","-0.0038193697","-0.010198115","-0.05633345","-0.016070087","-0.52911","-0.03119087","-0.0038193697","-0.010198115","6358508402587","6358441477276","6358540146680"
"1589396821675","1139","1309","1500","-6.2004027","2.9578395","-1.7855213","-0.058602177","0.056732073","13482","13717","-309.0","-179.0","0.0","0.8827338","0.0","0.0","0.8563621","0.031837873","-0.0058484804","5.752604E-4","-0.10862833","-0.05633345","-0.04568009","-0.52911","-0.031190228","-0.0037514337","-0.01042931","-0.05633345","0.04236991","-0.52911","-0.031190228","-0.0037514337","-0.01042931","-0.05633345","-0.016070087","-0.52911","-0.031190228","-0.0037514337","-0.01042931","6358508402587","6358441477276","6358540146680"
"1589396821697","1139","1309","1500","-6.2004027","2.9578395","-1.7855213","-0.058602177","0.056732073","13482","13717","-309.0","-179.0","0.0","0.8827338","0.0","0.0","0.85655385","0.031837873","-0.0057526035","5.752604E-4","-0.10862833","-0.05633345","-0.04568009","-0.52911","-0.031190228","-0.0037514337","-0.01042931","-0.05633345","0.04236991","-0.52911","-0.031190228","-0.0037514337","-0.01042931","-0.05633345","-0.016070087","-0.52911","-0.031190228","-0.0037514337","-0.01042931","6358508402587","6358441477276","6358540146680"
"1589396821702","1139","1309","1500","-6.2004027","2.9578395","-1.7855213","-0.058602177","0.056732073","13482","13717","-309.0","-179.0","1.9179442E-4","0.8828297","0.0","0.0","0.85655385","0.031837873","-0.0057526035","5.752604E-4","-0.10862833","-0.05633345","-0.04568009","-0.52911","-0.031190228","-0.0037514337","-0.01042931","-0.05633345","0.04236991","-0.52911","-0.031190228","-0.0037514337","-0.01042931","-0.056333285","-0.016064927","-0.52911","-0.031573776","-0.0037554328","-0.01042787","6358574193484","6358441477276","6358573044035"
"1589396821711","1139","1309","1500","-6.2004027","2.9578395","-1.7855213","-0.058602177","0.056732073","13482","13717","-309.0","-179.0","1.9179442E-4","0.8828297","0.0","0.0","0.85655385","0.03030352","-0.0057526035","5.752604E-4","-0.10862833","-0.056333285","-0.04567493","-0.52911","-0.031573776","-0.0037554328","-0.01042787","-0.056333285","0.04237507","-0.52911","-0.031573776","-0.0037554328","-0.01042787","-0.056333285","-0.016064927","-0.52911","-0.031573776","-0.0037554328","-0.01042787","6358574193484","6358441477276","6358573044035"
"1589396821717","1139","1309","1500","-6.2004027","2.9578395","-1.7855213","-0.058602177","0.056732073","13482","13717","-309.0","-179.0","1.9179442E-4","0.8828297","0.0","0.0","0.85655385","0.03030352","-0.0057526035","5.752604E-4","-0.10862833","-0.05633392","-0.04569557","-0.52911","-0.030038709","-0.003642001","-0.010763781","-0.05633392","0.04235443","-0.52911","-0.030038709","-0.003642001","-0.010763781","-0.05633392","-0.016085565","-0.52911","-0.030038709","-0.003642001","-0.010763781","6358574193484","6358441477276","6358573044035"
"1589396821721","1139","1309","1500","-6.2004027","2.9578395","-1.7855213","-0.05274196","0.051058866","13482","13717","-309.0","-179.0","1.9179442E-4","0.8828297","0.0","0.0","0.85655385","0.03030352","-0.0057526035","5.752604E-4","-0.10862833","-0.05633392","-0.04569557","-0.52911","-0.030038709","-0.003642001","-0.010763781","-0.05633392","0.04235443","-0.52911","-0.030038709","-0.003642001","-0.010763781","-0.05633392","-0.016085565","-0.52911","-0.030038709","-0.003642001","-0.010763781","6358574193484","6358441477276","6358573044035"
"1589396821729","1139","1309","1500","-6.2004027","2.9578395","-1.7855213","-0.05274196","0.051058866","13482","13717","-309.0","-179.0","1.9179442E-4","0.8828297","0.0","0.0","0.85655385","0.03030352","-0.0057526035","8.628905E-4","-0.10949122","-0.05633392","-0.04569557","-0.52911","-0.030039962","-0.0040361923","-0.010325314","-0.05633392","0.04235443","-0.52911","-0.030039962","-0.0040361923","-0.010325314","-0.05633392","-0.016085565","-0.52911","-0.030039962","-0.0040361923","-0.010325314","6358574193484","6358441477276","6358573044035"
"1589396821739","1139","1309","1500","-6.2004027","2.9578395","-1.7855213","-0.05274196","0.051058866","13482","13717","-309.0","-179.0","1.9179442E-4","0.8828297","0.0","0.0","0.8574169","0.03030352","-0.0056567267","8.628905E-4","-0.10949122","-0.05633392","-0.04569557","-0.52911","-0.030039962","-0.0040361923","-0.010325314","-0.05633392","0.04235443","-0.52911","-0.030039962","-0.0040361923","-0.010325314","-0.05633392","-0.016085565","-0.52911","-0.030039962","-0.0040361923","-0.010325314","6358574193484","6358441477276","6358605948148"
"1589396821746","1139","1309","1500","-6.2004027","2.9578395","-1.7855213","-0.05274196","0.051058866","13482","13717","-309.0","-179.0","4.7948604E-4","0.8829256","0.0","0.0","0.8574169","0.03030352","-0.0056567267","8.628905E-4","-0.10949122","-0.05633392","-0.04569557","-0.52911","-0.030039962","-0.0040361923","-0.010325314","-0.05633392","0.04235443","-0.52911","-0.030039962","-0.0040361923","-0.010325314","-0.05633392","-0.016085565","-0.52911","-0.030039962","-0.0040361923","-0.010325314","6358574193484","6358441477276","6358605948148"
"1589396821751","1139","1309","1500","-6.2004027","2.9578395","-1.7855213","-0.05274196","0.051058866","13482","13717","-309.0","-179.0","4.7948604E-4","0.8829256","0.0","0.0","0.8574169","0.03030352","-0.0056567267","8.628905E-4","-0.10949122","-0.05633392","-0.04569557","-0.52911","-0.030039962","-0.0040361923","-0.010325314","-0.05633392","0.04235443","-0.52911","-0.030039962","-0.0040361923","-0.010325314","-0.05633392","-0.016085565","-0.52911","-0.030039962","-0.0040361923","-0.010325314","6358574193484","6358441477276","6358605948148"
"1589396821756","1139","1309","1500","-6.2004027","2.9578395","-1.7855213","-0.05274196","0.051058866","13482","13717","-309.0","-179.0","4.7948604E-4","0.8829256","0.0","0.0","0.8574169","0.025700452","-0.0056567267","8.628905E-4","-0.10949122","-0.05633412","-0.045702174","-0.52911","-0.029549032","-0.004031123","-0.010327292","-0.05633412","0.042347826","-0.52911","-0.029549032","-0.004031123","-0.010327292","-0.05633412","-0.01609217","-0.52911","-0.029549032","-0.004031123","-0.010327292","6358574193484","6358441477276","6358605948148"
"1589396821760","1138","1310","1500","-6.2004027","2.9578395","-1.7855213","-0.05274196","0.051058866","13481","13717","-309.0","-179.0","4.7948604E-4","0.8829256","0.0","0.0","0.8574169","0.025700452","-0.0056567267","8.628905E-4","-0.10949122","-0.05633412","-0.045702174","-0.52911","-0.029549032","-0.004031123","-0.010327292","-0.05633412","0.042347826","-0.52911","-0.029549032","-0.004031123","-0.010327292","-0.05633412","-0.01609217","-0.52911","-0.029549032","-0.004031123","-0.010327292","6358574193484","6358441477276","6358605948148"
"1589396821764","1138","1310","1500","-6.2004027","2.9578395","-1.7855213","-0.05274196","0.051058866","13481","13717","-320.0","-179.0","4.7948604E-4","0.8829256","0.0","0.0","0.8574169","0.025700452","-0.0056567267","8.628905E-4","-0.10949122","-0.05633412","-0.045702174","-0.52911","-0.029549032","-0.004031123","-0.010327292","-0.05633412","0.042347826","-0.52911","-0.029549032","-0.004031123","-0.010327292","-0.05633412","-0.01609217","-0.52911","-0.029549032","-0.004031123","-0.010327292","6358574193484","6358441477276","6358605948148"
"1589396821769","1138","1310","1500","-6.2004027","2.9578395","-1.7855213","-0.05274196","0.051058866","13481","13717","-320.0","-179.0","4.7948604E-4","0.8829256","0.0","0.0","0.8574169","0.025700452","-0.0056567267","8.628905E-4","-0.10949122","-0.05633412","-0.045702174","-0.52911","-0.029549032","-0.004031123","-0.010327292","-0.05633412","0.042347826","-0.52911","-0.029549032","-0.004031123","-0.010327292","-0.056335807","-0.016154092","-0.52911","-0.024948424","-0.0042559095","-0.0101359235","6358574193484","6358441477276","6358638856012"
"1589396821777","1138","1310","1500","-6.1994963","2.9621968","-1.7662181","-0.056368943","0.08455954","13481","13717","-320.0","-179.0","4.7948604E-4","0.8829256","0.0","0.0","0.8574169","0.025700452","-0.0056567267","9.5876725E-4","-0.11035411","-0.056335807","-0.045764092","-0.52911","-0.024948144","-0.0040174727","-0.010189338","-0.056335807","0.042285908","-0.52911","-0.024948144","-0.0040174727","-0.010189338","-0.056335807","-0.016154092","-0.52911","-0.024948144","-0.0040174727","-0.010189338","6358640005926","6358441477276","6358638856012"
"1589396821783","1138","1310","1500","-6.1994963","2.9621968","-1.7662181","-0.056368943","0.08455954","13481","13717","-320.0","-179.0","4.7948604E-4","0.8829256","0.0","0.0","0.8574169","0.025700452","-0.0056567267","9.5876725E-4","-0.11035411","-0.056335807","-0.045764092","-0.52911","-0.024948144","-0.0040174727","-0.010189338","-0.056335807","0.042285908","-0.52911","-0.024948144","-0.0040174727","-0.010189338","-0.056335807","-0.016154092","-0.52911","-0.024948144","-0.0040174727","-0.010189338","6358640005926","6358441477276","6358638856012"
"1589396821795","1138","1310","1500","-6.1994963","2.9621968","-1.7662181","-0.056368943","0.08455954","13481","13717","-320.0","-179.0","4.7948604E-4","0.8829256","0.0","0.0","0.85828","0.025700452","-0.0056567267","9.5876725E-4","-0.11035411","-0.056335807","-0.045764092","-0.52911","-0.024948144","-0.0040174727","-0.010189338","-0.056335807","0.042285908","-0.52911","-0.024948144","-0.0040174727","-0.010189338","-0.056335807","-0.016154092","-0.52911","-0.024948144","-0.0040174727","-0.010189338","6358640005926","6358441477276","6358638856012"
"1589396821813","1138","1310","1500","-6.1994963","2.9621968","-1.7662181","-0.056368943","0.08455954","13481","13717","-320.0","-179.0","5.7538325E-4","0.8832133","0.0","0.0","0.85828","0.025700452","-0.0056567267","9.5876725E-4","-0.11035411","-0.056335874","-0.04576678","-0.52911","-0.024748709","-0.0040154406","-0.0101901395","-0.056335874","0.042283222","-0.52911","-0.024748709","-0.0040154406","-0.0101901395","-0.056335874","-0.016156774","-0.52911","-0.024748709","-0.0040154406","-0.0101901395","6358640005926","6358573044035","6358671766821"
"1589396821825","1138","1310","1500","-6.1985903","2.9665542","-1.7855213","-0.05963323","0.037497025","13481","13716","-320.0","-202.0","5.7538325E-4","0.8832133","0.0","0.0","0.85828","0.019850722","-0.0056567267","0.0014381509","-0.11102525","-0.05633759","-0.04584548","-0.52911","-0.018900711","-0.0047088955","-0.009609796","-0.05633759","0.04220452","-0.52911","-0.018900711","-0.0047088955","-0.009609796","-0.05633759","-0.016235476","-0.52911","-0.018900711","-0.0047088955","-0.009609796","6358640005926","6358573044035","6358671766821"
"1589396821835","1138","1310","1500","-6.1985903","2.9665542","-1.7855213","-0.05963323","0.037497025","13481","13716","-320.0","-202.0","5.7538325E-4","0.8832133","0.0","0.0","0.86000615","0.019850722","-0.0056567267","0.0014381509","-0.11102525","-0.05633759","-0.04584548","-0.52911","-0.018900711","-0.0047088955","-0.009609796","-0.05633759","0.04220452","-0.52911","-0.018900711","-0.0047088955","-0.009609796","-0.05633759","-0.016235476","-0.52911","-0.018900711","-0.0047088955","-0.009609796","6358705828567","6358573044035","6358671766821"
"1589396821839","1138","1310","1500","-6.1985903","2.9665542","-1.7855213","-0.05963323","0.037497025","13481","13716","-320.0","-202.0","5.7538325E-4","0.8832133","0.0","0.0","0.86000615","0.019850722","-0.0056567267","0.0014381509","-0.11102525","-0.05633759","-0.04584548","-0.52911","-0.018900711","-0.0047088955","-0.009609796","-0.05633759","0.04220452","-0.52911","-0.018900711","-0.0047088955","-0.009609796","-0.05633759","-0.016235476","-0.52911","-0.018900711","-0.0047088955","-0.009609796","6358705828567","6358573044035","6358671766821"
"1589396821844","1138","1310","1500","-6.1985903","2.9665542","-1.7855213","-0.05963323","0.037497025","13481","13716","-320.0","-202.0","5.7538325E-4","0.8832133","0.0","0.0","0.86000615","0.019850722","-0.0056567267","0.0014381509","-0.11102525","-0.05633759","-0.04584548","-0.52911","-0.018900711","-0.0047088955","-0.009609796","-0.05633759","0.04220452","-0.52911","-0.018900711","-0.0047088955","-0.009609796","-0.05633759","-0.016235476","-0.52911","-0.018900711","-0.0047088955","-0.009609796","6358705828567","6358573044035","6358671766821"
"1589396821849","1138","1310","1500","-6.1985903","2.9665542","-1.7855213","-0.05963323","0.037497025","13481","13716","-320.0","-202.0","3.8358883E-4","0.8833092","0.0","0.0","0.86000615","0.019850722","-0.0056567267","0.0014381509","-0.11102525","-0.05633759","-0.04584548","-0.52911","-0.018900711","-0.0047088955","-0.009609796","-0.05633759","0.04220452","-0.52911","-0.018900711","-0.0047088955","-0.009609796","-0.05633759","-0.016235476","-0.52911","-0.018900711","-0.0047088955","-0.009609796","6358705828567","6358573044035","6358704678901"
"1589396821856","1138","1310","1500","-6.1985903","2.9665542","-1.7855213","-0.05963323","0.037497025","13481","13716","-320.0","-202.0","3.8358883E-4","0.8833092","0.0","0.0","0.86000615","0.02100149","-0.0056567267","0.0014381509","-0.11102525","-0.056337297","-0.04583041","-0.52911","-0.020020578","-0.0047196536","-0.009604516","-0.056337297","0.04221959","-0.52911","-0.020020578","-0.0047196536","-0.009604516","-0.056337297","-0.016220406","-0.52911","-0.020020578","-0.0047196536","-0.009604516","6358705828567","6358573044035","6358704678901"
"1589396821863","1132","1290","1500","-6.1985903","2.9665542","-1.7855213","-0.05963323","0.037497025","13480","13716","-320.0","-202.0","3.8358883E-4","0.8833092","0.0","0.0","0.86000615","0.02100149","-0.0056567267","0.0014381509","-0.11102525","-0.056337297","-0.04583041","-0.52911","-0.020020578","-0.0047196536","-0.009604516","-0.056337297","0.04221959","-0.52911","-0.020020578","-0.0047196536","-0.009604516","-0.056337297","-0.016220406","-0.52911","-0.020020578","-0.0047196536","-0.009604516","6358705828567","6358573044035","6358704678901"
"1589396821867","1132","1290","1500","-6.1985903","2.9665542","-1.7855213","-0.05963323","0.037497025","13480","13716","-343.0","-202.0","3.8358883E-4","0.8833092","0.0","0.0","0.86000615","0.02100149","-0.0056567267","0.0014381509","-0.11102525","-0.056337297","-0.04583041","-0.52911","-0.020020578","-0.0047196536","-0.009604516","-0.056337297","0.04221959","-0.52911","-0.020020578","-0.0047196536","-0.009604516","-0.056337297","-0.016220406","-0.52911","-0.020020578","-0.0047196536","-0.009604516","6358705828567","6358573044035","6358737579170"
"1589396821870","1132","1290","1500","-6.1985903","2.9665542","-1.7855213","-0.05963323","0.037497025","13480","13716","-343.0","-202.0","3.8358883E-4","0.8833092","0.0","0.0","0.86000615","0.02100149","-0.0056567267","0.0014381509","-0.11102525","-0.056337297","-0.04583041","-0.52911","-0.020020578","-0.0047196536","-0.009604516","-0.056337297","0.04221959","-0.52911","-0.020020578","-0.0047196536","-0.009604516","-0.056337297","-0.016220406","-0.52911","-0.020020578","-0.0047196536","-0.009604516","6358705828567","6358573044035","6358737579170"
"1589396821880","1132","1290","1500","-6.197684","2.9709115","-1.7662181","-0.062571086","0.07235388","13480","13716","-343.0","-202.0","3.8358883E-4","0.8833092","0.0","0.0","0.8628831","0.02100149","-0.0056567267","0.0023969181","-0.11150463","-0.05633698","-0.045814924","-0.52911","-0.021173837","-0.005963027","-0.009231704","-0.05633698","0.042235076","-0.52911","-0.021173837","-0.005963027","-0.009231704","-0.05633698","-0.016204923","-0.52911","-0.021173837","-0.005963027","-0.009231704","6358738728123","6358573044035","6358737579170"
"1589396821886","1132","1290","1500","-6.197684","2.9709115","-1.7662181","-0.062571086","0.07235388","13480","13716","-343.0","-202.0","3.8358883E-4","0.8833092","0.0","0.0","0.8628831","0.02100149","-0.0056567267","0.0023969181","-0.11150463","-0.05633698","-0.045814924","-0.52911","-0.021173837","-0.005963027","-0.009231704","-0.05633698","0.042235076","-0.52911","-0.021173837","-0.005963027","-0.009231704","-0.05633698","-0.016204923","-0.52911","-0.021173837","-0.005963027","-0.009231704","6358738728123","6358573044035","6358737579170"
"1589396821891","1132","1290","1500","-6.197684","2.9709115","-1.7662181","-0.062571086","0.07235388","13480","13716","-343.0","-202.0","3.8358883E-4","0.8833092","0.0","0.0","0.8628831","0.02100149","-0.0058484804","0.0023969181","-0.11150463","-0.05633698","-0.045814924","-0.52911","-0.021173837","-0.005963027","-0.009231704","-0.05633698","0.042235076","-0.52911","-0.021173837","-0.005963027","-0.009231704","-0.05633698","-0.016204923","-0.52911","-0.021173837","-0.005963027","-0.009231704","6358738728123","6358573044035","6358737579170"
"1589396821894","1132","1290","1500","-6.197684","2.9709115","-1.7662181","-0.062571086","0.07235388","13480","13716","-343.0","-202.0","3.8358883E-4","0.8833092","0.0","0.0","0.8628831","0.02100149","-0.0058484804","0.0023969181","-0.11150463","-0.05633698","-0.045814924","-0.52911","-0.021173837","-0.005963027","-0.009231704","-0.05633698","0.042235076","-0.52911","-0.021173837","-0.005963027","-0.009231704","-0.05633698","-0.016204923","-0.52911","-0.021173837","-0.005963027","-0.009231704","6358738728123","6358573044035","6358737579170"
"1589396821907","1132","1290","1500","-6.197684","2.9709115","-1.7662181","-0.062571086","0.07235388","13480","13716","-343.0","-202.0","4.7948604E-4","0.88426816","0.0","0.0","0.8628831","0.027906088","-0.0058484804","0.0023969181","-0.11150463","-0.056336712","-0.04580254","-0.52911","-0.022094294","-0.005971521","-0.00922621","-0.056336712","0.04224746","-0.52911","-0.022094294","-0.005971521","-0.00922621","-0.056336712","-0.016192537","-0.52911","-0.022094294","-0.005971521","-0.00922621","6358738728123","6358573044035","6358770482508"
"1589396821912","1132","1290","1500","-6.197684","2.9709115","-1.7662181","-0.062571086","0.07235388","13480","13715","-343.0","-202.0","4.7948604E-4","0.88426816","0.0","0.0","0.8628831","0.027906088","-0.0058484804","0.0023969181","-0.11150463","-0.056336712","-0.04580254","-0.52911","-0.022094294","-0.005971521","-0.00922621","-0.056336712","0.04224746","-0.52911","-0.022094294","-0.005971521","-0.00922621","-0.056336712","-0.016192537","-0.52911","-0.022094294","-0.005971521","-0.00922621","6358738728123","6358573044035","6358770482508"
"1589396821925","1132","1290","1500","-6.197684","2.9709115","-1.7662181","-0.062571086","0.07235388","13480","13715","-343.0","-228.0","4.7948604E-4","0.88426816","0.0","0.0","0.8628831","0.027906088","-0.0058484804","0.0023969181","-0.11150463","-0.056336712","-0.04580254","-0.52911","-0.022094294","-0.005971521","-0.00922621","-0.056336712","0.04224746","-0.52911","-0.022094294","-0.005971521","-0.00922621","-0.05633434","-0.016099652","-0.52911","-0.029002385","-0.008397544","-0.008094834","6358738728123","6358573044035","6358770482508"
"1589396821934","1132","1290","1500","-6.1967773","2.9752688","-1.7855213","-0.065215155","0.026511932","13480","13715","-343.0","-228.0","4.7948604E-4","0.88426816","0.0","0.0","0.8666231","0.027906088","-0.0058484804","0.003835069","-0.1124634","-0.05633434","-0.045709655","-0.52911","-0.029002385","-0.008397544","-0.008094834","-0.05633434","0.042340346","-0.52911","-0.029002385","-0.008397544","-0.008094834","-0.05633434","-0.016099652","-0.52911","-0.029002385","-0.008397544","-0.008094834","6358738728123","6358704678901","6358770482508"
"1589396821938","1132","1290","1500","-6.1967773","2.9752688","-1.7855213","-0.065215155","0.026511932","13480","13715","-343.0","-228.0","4.7948604E-4","0.88426816","0.0","0.0","0.8666231","0.027906088","-0.0058484804","0.003835069","-0.1124634","-0.05633434","-0.045709655","-0.52911","-0.029002385","-0.008397544","-0.008094834","-0.05633434","0.042340346","-0.52911","-0.029002385","-0.008397544","-0.008094834","-0.05633434","-0.016099652","-0.52911","-0.029002385","-0.008397544","-0.008094834","6358738728123","6358704678901","6358803373291"
"1589396821952","1132","1290","1500","-6.1967773","2.9752688","-1.7855213","-0.065215155","0.026511932","13480","13715","-343.0","-228.0","5.7538325E-4","0.88561076","0.0","0.0","0.8666231","0.027906088","-0.0058484804","0.003835069","-0.1124634","-0.05633434","-0.045709655","-0.52911","-0.029002385","-0.008397544","-0.008094834","-0.05633434","0.042340346","-0.52911","-0.029002385","-0.008397544","-0.008094834","-0.05633434","-0.016099652","-0.52911","-0.029002385","-0.008397544","-0.008094834","6358804522213","6358704678901","6358803373291"
"1589396821959","1132","1290","1500","-6.1967773","2.9752688","-1.7855213","-0.065215155","0.026511932","13480","13715","-343.0","-228.0","5.7538325E-4","0.88561076","0.0","0.0","0.8666231","0.032509156","-0.0058484804","0.003835069","-0.1124634","-0.05633448","-0.04571461","-0.52911","-0.028634166","-0.008394564","-0.008097924","-0.05633448","0.04233539","-0.52911","-0.028634166","-0.008394564","-0.008097924","-0.05633448","-0.016104605","-0.52911","-0.028634166","-0.008394564","-0.008097924","6358804522213","6358704678901","6358803373291"
"1589396821965","1114","1198","1500","-6.1967773","2.9752688","-1.7855213","-0.065215155","0.026511932","13479","13715","-343.0","-228.0","5.7538325E-4","0.88561076","0.0","0.0","0.8666231","0.032509156","-0.0058484804","0.003835069","-0.1124634","-0.05633448","-0.04571461","-0.52911","-0.028634166","-0.008394564","-0.008097924","-0.05633448","0.04233539","-0.52911","-0.028634166","-0.008394564","-0.008097924","-0.05633448","-0.016104605","-0.52911","-0.028634166","-0.008394564","-0.008097924","6358804522213","6358704678901","6358803373291"
"1589396821968","1114","1198","1500","-6.1967773","2.9752688","-1.7855213","-0.065215155","0.026511932","13479","13715","-369.0","-228.0","5.7538325E-4","0.88561076","0.0","0.0","0.8666231","0.032509156","-0.0058484804","0.003835069","-0.1124634","-0.05633448","-0.04571461","-0.52911","-0.028634166","-0.008394564","-0.008097924","-0.05633448","0.04233539","-0.52911","-0.028634166","-0.008394564","-0.008097924","-0.05633448","-0.016104605","-0.52911","-0.028634166","-0.008394564","-0.008097924","6358804522213","6358704678901","6358803373291"
"1589396821978","1114","1198","1500","-6.1967773","2.9752688","-1.7855213","-0.065215155","0.026511932","13479","13715","-369.0","-228.0","5.7538325E-4","0.88561076","0.0","0.0","0.8666231","0.032509156","-0.0058484804","0.003835069","-0.1124634","-0.05633448","-0.04571461","-0.52911","-0.028634166","-0.008394564","-0.008097924","-0.05633448","0.04233539","-0.52911","-0.028634166","-0.008394564","-0.008097924","-0.05633448","-0.016104605","-0.52911","-0.028634166","-0.008394564","-0.008097924","6358804522213","6358704678901","6358836271607"
"1589396821994","1114","1198","1500","-6.1958714","2.9796262","-1.7662181","-0.06759482","0.062467296","13479","13715","-369.0","-228.0","4.7948604E-4","0.8873369","0.0","0.0","0.8696918","0.032509156","-0.0060402337","0.0047938363","-0.11370979","-0.056332566","-0.045652695","-0.52911","-0.033240605","-0.010338687","-0.008234659","-0.056332566","0.042397305","-0.52911","-0.033240605","-0.010338687","-0.008234659","-0.056332566","-0.01604269","-0.52911","-0.033240605","-0.010338687","-0.008234659","6358804522213","6358704678901","6358836271607"
"1589396821998","1114","1198","1500","-6.1958714","2.9796262","-1.7662181","-0.06759482","0.062467296","13479","13715","-369.0","-228.0","4.7948604E-4","0.8873369","0.0","0.0","0.8696918","0.032509156","-0.0060402337","0.0047938363","-0.11370979","-0.056332566","-0.045652695","-0.52911","-0.033240605","-0.010338687","-0.008234659","-0.056332566","0.042397305","-0.52911","-0.033240605","-0.010338687","-0.008234659","-0.056332566","-0.01604269","-0.52911","-0.033240605","-0.010338687","-0.008234659","6358804522213","6358704678901","6358836271607"
"1589396822002","1114","1198","1500","-6.1958714","2.9796262","-1.7662181","-0.06759482","0.062467296","13479","13715","-369.0","-228.0","4.7948604E-4","0.8873369","0.0","0.0","0.8696918","0.032509156","-0.0060402337","0.0047938363","-0.11370979","-0.056332648","-0.04565517","-0.52911","-0.033056483","-0.01033717","-0.008236561","-0.056332648","0.04239483","-0.52911","-0.033056483","-0.01033717","-0.008236561","-0.056332648","-0.016045168","-0.52911","-0.033056483","-0.01033717","-0.008236561","6358804522213","6358704678901","6358836271607"
"1589396822009","1114","1198","1500","-6.1958714","2.9796262","-1.7662181","-0.06759482","0.062467296","13479","13715","-369.0","-228.0","4.7948604E-4","0.8873369","0.0","0.0","0.8696918","0.035961453","-0.0060402337","0.0047938363","-0.11370979","-0.056332648","-0.04565517","-0.52911","-0.033056483","-0.01033717","-0.008236561","-0.056332648","0.04239483","-0.52911","-0.033056483","-0.01033717","-0.008236561","-0.056332648","-0.016045168","-0.52911","-0.033056483","-0.01033717","-0.008236561","6358870331865","6358704678901","6358869182013"
"1589396822014","1114","1198","1500","-6.1958714","2.9796262","-1.7662181","-0.06759482","0.062467296","13479","13715","-369.0","-228.0","4.7948604E-4","0.8873369","0.0","0.0","0.8696918","0.035961453","-0.0060402337","0.0047938363","-0.11370979","-0.056332648","-0.04565517","-0.52911","-0.033056483","-0.01033717","-0.008236561","-0.056332648","0.04239483","-0.52911","-0.033056483","-0.01033717","-0.008236561","-0.056332648","-0.016045168","-0.52911","-0.033056483","-0.01033717","-0.008236561","6358870331865","6358704678901","6358869182013"
"1589396822025","1114","1198","1500","-6.1958714","2.9796262","-1.7662181","-0.06759482","0.062467296","13479","13715","-369.0","-228.0","4.7948604E-4","0.8873369","0.0","0.0","0.8696918","0.035961453","-0.0060402337","0.0047938363","-0.11370979","-0.056332648","-0.04565517","-0.52911","-0.033056483","-0.01033717","-0.008236561","-0.056332648","0.04239483","-0.52911","-0.033056483","-0.01033717","-0.008236561","-0.056332648","-0.016045168","-0.52911","-0.033056483","-0.01033717","-0.008236561","6358870331865","6358704678901","6358869182013"
"1589396822034","1114","1198","1500","-6.1958714","2.9796262","-1.7662181","-0.06759482","0.062467296","13479","13715","-369.0","-228.0","4.7948604E-4","0.8873369","0.0","0.0","0.87324","0.035961453","-0.0060402337","0.0052732197","-0.11457269","-0.05633103","-0.04560874","-0.52911","-0.036511645","-0.011439139","-0.007810958","-0.05633103","0.04244126","-0.52911","-0.036511645","-0.011439139","-0.007810958","-0.05633103","-0.015998738","-0.52911","-0.036511645","-0.011439139","-0.007810958","6358870331865","6358704678901","6358869182013"
"1589396822037","1114","1198","1500","-6.1958714","2.9796262","-1.7662181","-0.060835335","0.056220565","13479","13715","-369.0","-228.0","4.7948604E-4","0.8873369","0.0","0.0","0.87324","0.035961453","-0.0060402337","0.0052732197","-0.11457269","-0.05633103","-0.04560874","-0.52911","-0.036511645","-0.011439139","-0.007810958","-0.05633103","0.04244126","-0.52911","-0.036511645","-0.011439139","-0.007810958","-0.05633103","-0.015998738","-0.52911","-0.036511645","-0.011439139","-0.007810958","6358870331865","6358704678901","6358869182013"
"1589396822050","1114","1198","1500","-6.1958714","2.9796262","-1.7662181","-0.060835335","0.056220565","13479","13715","-369.0","-228.0","3.8358883E-4","0.88906306","0.0","0.0","0.87324","0.035961453","-0.0061361105","0.0052732197","-0.11457269","-0.05633103","-0.04560874","-0.52911","-0.036511645","-0.011439139","-0.007810958","-0.056330666","0.042451166","-0.52911","-0.03724817","-0.011444887","-0.0078025325","-0.056330666","-0.015988832","-0.52911","-0.03724817","-0.011444887","-0.0078025325","6358870331865","6358704678901","6358902085227"
"1589396822061","1114","1198","1500","-6.1958714","2.9796262","-1.7662181","-0.060835335","0.056220565","13479","13715","-369.0","-228.0","3.8358883E-4","0.88906306","0.0","0.0","0.87324","0.04401682","-0.0061361105","0.0052732197","-0.11457269","-0.056330666","-0.045598835","-0.52911","-0.03724817","-0.011444887","-0.0078025325","-0.056330666","0.042451166","-0.52911","-0.03724817","-0.011444887","-0.0078025325","-0.056330666","-0.015988832","-0.52911","-0.03724817","-0.011444887","-0.0078025325","6358870331865","6358704678901","6358902085227"
"1589396822067","1102","1097","1500","-6.1958714","2.9796262","-1.7662181","-0.060835335","0.056220565","13479","13715","-369.0","-228.0","3.8358883E-4","0.88906306","0.0","0.0","0.87324","0.04401682","-0.0061361105","0.0052732197","-0.11457269","-0.056330666","-0.045598835","-0.52911","-0.03724817","-0.011444887","-0.0078025325","-0.056330666","0.042451166","-0.52911","-0.03724817","-0.011444887","-0.0078025325","-0.056330666","-0.015988832","-0.52911","-0.03724817","-0.011444887","-0.0078025325","6358870331865","6358836271607","6358902085227"
"1589396822072","1102","1097","1500","-6.1958714","2.9796262","-1.7662181","-0.060835335","0.056220565","13479","13715","-369.0","-228.0","3.8358883E-4","0.88906306","0.0","0.0","0.87324","0.04401682","-0.0061361105","0.0052732197","-0.11457269","-0.056330666","-0.045598835","-0.52911","-0.03724817","-0.011444887","-0.0078025325","-0.056330666","0.042451166","-0.52911","-0.03724817","-0.011444887","-0.0078025325","-0.056330666","-0.015988832","-0.52911","-0.03724817","-0.011444887","-0.0078025325","6358870331865","6358836271607","6358934992657"
"1589396822082","1102","1097","1500","-6.1958714","2.9796262","-1.7662181","-0.060835335","0.056220565","13479","13715","-369.0","-228.0","3.8358883E-4","0.88906306","0.0","0.0","0.8776513","0.04401682","-0.0061361105","0.0060402337","-0.11428506","-0.056330666","-0.045598835","-0.52911","-0.03724817","-0.011444887","-0.0078025325","-0.056330666","0.042451166","-0.52911","-0.03724817","-0.011444887","-0.0078025325","-0.056330666","-0.015988832","-0.52911","-0.03724817","-0.011444887","-0.0078025325","6358936142199","6358836271607","6358934992657"
"1589396822091","1102","1097","1500","-6.1958714","2.9796262","-1.7662181","-0.054751802","0.05059851","13479","13715","-369.0","-228.0","3.8358883E-4","0.88906306","0.0","0.0","0.8776513","0.04401682","-0.0064237406","0.0060402337","-0.11428506","-0.056326192","-0.045490526","-0.52911","-0.04530752","-0.01277613","-0.007680776","-0.056326192","0.042559475","-0.52911","-0.04530752","-0.01277613","-0.007680776","-0.056326192","-0.015880523","-0.52911","-0.04530752","-0.01277613","-0.007680776","6358936142199","6358836271607","6358934992657"
"1589396822098","1102","1097","1500","-6.1958714","2.9796262","-1.7662181","-0.054751802","0.05059851","13479","13715","-369.0","-228.0","3.8358883E-4","0.88906306","0.0","0.0","0.8776513","0.04401682","-0.0064237406","0.0060402337","-0.11428506","-0.056326192","-0.045490526","-0.52911","-0.04530752","-0.01277613","-0.007680776","-0.056326192","0.042559475","-0.52911","-0.04530752","-0.01277613","-0.007680776","-0.056326192","-0.015880523","-0.52911","-0.04530752","-0.01277613","-0.007680776","6358936142199","6358836271607","6358934992657"
"1589396822103","1102","1097","1500","-6.1958714","2.9796262","-1.7662181","-0.054751802","0.05059851","13479","13715","-369.0","-228.0","4.7948604E-4","0.8904056","0.0","0.0","0.8776513","0.062045496","-0.0064237406","0.0060402337","-0.11428506","-0.056325205","-0.045469075","-0.52911","-0.046903536","-0.012788366","-0.007660384","-0.056325205","0.042580925","-0.52911","-0.046903536","-0.012788366","-0.007660384","-0.056325205","-0.015859073","-0.52911","-0.046903536","-0.012788366","-0.007660384","6358936142199","6358836271607","6358967905264"
"1589396822116","1102","1097","1500","-6.1958714","2.9796262","-1.7662181","-0.054751802","0.05059851","13479","13715","-369.0","-228.0","4.7948604E-4","0.8904056","0.0","0.0","0.8776513","0.062045496","-0.0064237406","0.0060402337","-0.11428506","-0.056325205","-0.045469075","-0.52911","-0.046903536","-0.012788366","-0.007660384","-0.056325205","0.042580925","-0.52911","-0.046903536","-0.012788366","-0.007660384","-0.056325205","-0.015859073","-0.52911","-0.046903536","-0.012788366","-0.007660384","6358936142199","6358836271607","6358967905264"
"1589396822120","1102","1097","1500","-6.1958714","2.9796262","-1.7662181","-0.054751802","0.05059851","13479","13716","-369.0","253.0","4.7948604E-4","0.8904056","0.0","0.0","0.8776513","0.062045496","-0.0064237406","0.0060402337","-0.11428506","-0.056325205","-0.045469075","-0.52911","-0.046903536","-0.012788366","-0.007660384","-0.056325205","0.042580925","-0.52911","-0.046903536","-0.012788366","-0.007660384","-0.056325205","-0.015859073","-0.52911","-0.046903536","-0.012788366","-0.007660384","6358936142199","6358836271607","6358967905264"
"1589396822133","1102","1097","1500","-6.1958714","2.9796262","-1.7662181","-0.054751802","0.05059851","13479","13716","-369.0","253.0","4.7948604E-4","0.8904056","0.0","0.0","0.8823502","0.062045496","-0.0064237406","0.0064237406","-0.11476444","-0.056325205","-0.045469075","-0.52911","-0.046903536","-0.012788366","-0.007660384","-0.056325205","0.042580925","-0.52911","-0.046903536","-0.012788366","-0.007660384","-0.056325205","-0.015859073","-0.52911","-0.046903536","-0.012788366","-0.007660384","6359001964902","6358836271607","6358967905264"
"1589396822137","1102","1097","1500","-6.1958714","2.9796262","-1.7662181","-0.054751802","0.05059851","13479","13716","-369.0","253.0","4.7948604E-4","0.8904056","0.0","0.0","0.8823502","0.062045496","-0.0064237406","0.0064237406","-0.11476444","-0.056325205","-0.045469075","-0.52911","-0.046903536","-0.012788366","-0.007660384","-0.056325205","0.042580925","-0.52911","-0.046903536","-0.012788366","-0.007660384","-0.056325205","-0.015859073","-0.52911","-0.046903536","-0.012788366","-0.007660384","6359001964902","6358836271607","6358967905264"
"1589396822152","1102","1097","1500","-6.1966934","2.9752522","-1.7469147","-0.04037544","0.08414522","13479","13716","-369.0","253.0","6.712805E-4","0.8915564","0.0","0.0","0.8823502","0.08400596","-0.0065196175","0.0064237406","-0.11476444","-0.056311097","-0.045218397","-0.52911","-0.065569654","-0.013640777","-0.0073548653","-0.056311097","0.042831603","-0.52911","-0.065569654","-0.013640777","-0.0073548653","-0.056311097","-0.015608394","-0.52911","-0.065569654","-0.013640777","-0.0073548653","6359001964902","6358836271607","6359000815360"
"1589396822160","1102","1097","1500","-6.1966934","2.9752522","-1.7469147","-0.04037544","0.08414522","13479","13716","-369.0","253.0","6.712805E-4","0.8915564","0.0","0.0","0.8823502","0.08400596","-0.0065196175","0.0064237406","-0.11476444","-0.056311097","-0.045218397","-0.52911","-0.065569654","-0.013640777","-0.0073548653","-0.056311097","0.042831603","-0.52911","-0.065569654","-0.013640777","-0.0073548653","-0.056311097","-0.015608394","-0.52911","-0.065569654","-0.013640777","-0.0073548653","6359001964902","6358836271607","6359000815360"
"1589396822166","1090","1071","1500","-6.1966934","2.9752522","-1.7469147","-0.04037544","0.08414522","13480","13717","-369.0","253.0","6.712805E-4","0.8915564","0.0","0.0","0.8823502","0.08400596","-0.0065196175","0.0064237406","-0.11476444","-0.056288503","-0.04492374","-0.52911","-0.08755087","-0.014363819","-0.006467239","-0.056288503","0.04312626","-0.52911","-0.08755087","-0.014363819","-0.006467239","-0.056288503","-0.015313739","-0.52911","-0.08755087","-0.014363819","-0.006467239","6359034876641","6358836271607","6359000815360"
"1589396822170","1090","1071","1500","-6.1982527","2.9664888","-1.7469147","-0.01853554","0.0757307","13480","13717","310.0","305.0","6.712805E-4","0.8915564","0.0","0.0","0.8823502","0.08400596","-0.0065196175","0.0064237406","-0.11476444","-0.056288503","-0.04492374","-0.52911","-0.08755087","-0.014363819","-0.006467239","-0.056288503","0.04312626","-0.52911","-0.08755087","-0.014363819","-0.006467239","-0.056288503","-0.015313739","-0.52911","-0.08755087","-0.014363819","-0.006467239","6359034876641","6358836271607","6359000815360"
"1589396822179","1090","1071","1500","-6.1982527","2.9664888","-1.7469147","-0.01853554","0.0757307","13480","13717","310.0","305.0","6.712805E-4","0.8915564","0.0","0.0","0.8823502","0.08400596","-0.0065196175","0.0056567267","-0.11562733","-0.056288503","-0.04492374","-0.52911","-0.087543234","-0.013228539","-0.007887345","-0.056288503","0.04312626","-0.52911","-0.087543234","-0.013228539","-0.007887345","-0.056288503","-0.015313739","-0.52911","-0.087543234","-0.013228539","-0.007887345","6359034876641","6358836271607","6359000815360"
